$GPRMC,100000.00,A,3958.8930,N,11620.6491,E,2.0,68.00,010526,,,A*58
$GPGGA,100000.00,3958.8930,N,11620.6491,E,1,12,0.8,52.0,M,0.0,M,,*6A
$GPGSA,A,3,01,02,03,04,05,06,07,08,09,10,11,12,1.5,0.8,1.2*3E
$GPGSV,4,1,14,01,25,028,38,02,30,056,40,03,35,084,37,04,40,112,41*72
$GPGSV,4,2,14,05,45,140,39,06,50,168,36,07,55,196,42,08,60,224,35*7B
$GPGSV,4,3,14,09,65,252,40,10,70,280,38,11,75,308,37,12,20,336,39*77
$GPGSV,4,4,14,13,25,004,41,14,30,032,36,,,,,,,,*7A
$GPRMC,100001.00,A,3958.8934,N,11620.6497,E,2.0,51.09,010526,,,A*58
$GPGGA,100001.00,3958.8934,N,11620.6497,E,1,12,0.8,52.0,M,0.0,M,,*69
$GPGSA,A,3,01,02,03,04,05,06,07,08,09,10,11,12,1.5,0.8,1.2*3E
$GPGSV,4,1,14,01,25,029,38,02,30,057,40,03,35,085,37,04,40,113,41*72
$GPGSV,4,2,14,05,45,141,39,06,50,169,36,07,55,197,42,08,60,225,35*7B
$GPGSV,4,3,14,09,65,253,40,10,70,281,38,11,75,309,37,12,20,337,39*77
$GPGSV,4,4,14,13,25,005,41,14,30,033,36,,,,,,,,*7A
$GPRMC,100002.00,A,3958.8937,N,11620.6503,E,2.0,51.06,010526,,,A*5B
$GPGGA,100002.00,3958.8937,N,11620.6503,E,1,12,0.8,52.0,M,0.0,M,,*65
$GPGSA,A,3,01,02,03,04,05,06,07,08,09,10,11,12,1.5,0.8,1.2*3E
$GPGSV,4,1,14,01,25,030,38,02,30,058,40,03,35,086,37,04,40,114,41*71
$GPGSV,4,2,14,05,45,142,39,06,50,170,36,07,55,198,42,08,60,226,35*7C
$GPGSV,4,3,14,09,65,254,40,10,70,282,38,11,75,310,37,12,20,338,39*74
$GPGSV,4,4,14,13,25,006,41,14,30,034,36,,,,,,,,*7E
$GPRMC,100003.00,A,3958.8941,N,11620.6509,E,2.0,51.04,010526,,,A*53
$GPGGA,100003.00,3958.8941,N,11620.6509,E,1,12,0.8,52.0,M,0.0,M,,*6F
$GPGSA,A,3,01,02,03,04,05,06,07,08,09,10,11,12,1.5,0.8,1.2*3E
$GPGSV,4,1,14,01,25,031,38,02,30,059,40,03,35,087,37,04,40,115,41*71
$GPGSV,4,2,14,05,45,143,39,06,50,171,36,07,55,199,42,08,60,227,35*7C
$GPGSV,4,3,14,09,65,255,40,10,70,283,38,11,75,311,37,12,20,339,39*74
$GPGSV,4,4,14,13,25,007,41,14,30,035,36,,,,,,,,*7E
$GPRMC,100004.00,A,3958.8945,N,11620.6515,E,2.0,51.03,010526,,,A*5A
$GPGGA,100004.00,3958.8945,N,11620.6515,E,1,12,0.8,52.1,M,0.0,M,,*60
$GPGSA,A,3,01,02,03,04,05,06,07,08,09,10,11,12,1.5,0.8,1.2*3E
$GPGSV,4,1,14,01,25,032,38,02,30,060,40,03,35,088,37,04,40,116,41*74
$GPGSV,4,2,14,05,45,144,39,06,50,172,36,07,55,200,42,08,60,228,35*74
$GPGSV,4,3,14,09,65,256,40,10,70,284,38,11,75,312,37,12,20,340,39*7D
$GPGSV,4,4,14,13,25,008,41,14,30,036,36,,,,,,,,*72
$GPRMC,100005.00,A,3958.8949,N,11620.6521,E,2.0,51.03,010526,,,A*50
$GPGGA,100005.00,3958.8949,N,11620.6521,E,1,12,0.8,52.1,M,0.0,M,,*6A
$GPGSA,A,3,01,02,03,04,05,06,07,08,09,10,11,12,1.5,0.8,1.2*3E
$GPGSV,4,1,14,01,25,033,38,02,30,061,40,03,35,089,37,04,40,117,41*74
$GPGSV,4,2,14,05,45,145,39,06,50,173,36,07,55,201,42,08,60,229,35*74
$GPGSV,4,3,14,09,65,257,40,10,70,285,38,11,75,313,37,12,20,341,39*7D
$GPGSV,4,4,14,13,25,009,41,14,30,037,36,,,,,,,,*72
$GPRMC,100006.00,A,3958.8952,N,11620.6527,E,2.0,51.03,010526,,,A*5F
$GPGGA,100006.00,3958.8952,N,11620.6527,E,1,12,0.8,52.1,M,0.0,M,,*65
$GPGSA,A,3,01,02,03,04,05,06,07,08,09,10,11,12,1.5,0.8,1.2*3E
$GPGSV,4,1,14,01,25,034,38,02,30,062,40,03,35,090,37,04,40,118,41*77
$GPGSV,4,2,14,05,45,146,39,06,50,174,36,07,55,202,42,08,60,230,35*7B
$GPGSV,4,3,14,09,65,258,40,10,70,286,38,11,75,314,37,12,20,342,39*75
$GPGSV,4,4,14,13,25,010,41,14,30,038,36,,,,,,,,*75
$GPRMC,100007.00,A,3958.8956,N,11620.6533,E,2.1,51.04,010526,,,A*59
$GPGGA,100007.00,3958.8956,N,11620.6533,E,1,12,0.9,52.1,M,0.0,M,,*64
$GPGSA,A,3,01,02,03,04,05,06,07,08,09,10,11,12,1.6,0.9,1.3*3D
$GPGSV,4,1,14,01,25,035,38,02,30,063,40,03,35,091,37,04,40,119,41*77
$GPGSV,4,2,14,05,45,147,39,06,50,175,36,07,55,203,42,08,60,231,35*7B
$GPGSV,4,3,14,09,65,259,40,10,70,287,38,11,75,315,37,12,20,343,39*75
$GPGSV,4,4,14,13,25,011,41,14,30,039,36,,,,,,,,*75
$GPRMC,100008.00,A,3958.8960,N,11620.6539,E,2.1,51.05,010526,,,A*58
$GPGGA,100008.00,3958.8960,N,11620.6539,E,1,12,0.9,52.1,M,0.0,M,,*64
$GPGSA,A,3,01,02,03,04,05,06,07,08,09,10,11,12,1.6,0.9,1.3*3D
$GPGSV,4,1,14,01,25,036,38,02,30,064,40,03,35,092,37,04,40,120,41*7A
$GPGSV,4,2,14,05,45,148,39,06,50,176,36,07,55,204,42,08,60,232,35*73
$GPGSV,4,3,14,09,65,260,40,10,70,288,38,11,75,316,37,12,20,344,39*74
$GPGSV,4,4,14,13,25,012,41,14,30,040,36,,,,,,,,*78
$GPRMC,100009.00,A,3958.8963,N,11620.6545,E,2.1,51.08,010526,,,A*5C
$GPGGA,100009.00,3958.8963,N,11620.6545,E,1,12,0.9,52.1,M,0.0,M,,*6D
$GPGSA,A,3,01,02,03,04,05,06,07,08,09,10,11,12,1.6,0.9,1.3*3D
$GPGSV,4,1,14,01,25,037,38,02,30,065,40,03,35,093,37,04,40,121,41*7A
$GPGSV,4,2,14,05,45,149,39,06,50,177,36,07,55,205,42,08,60,233,35*73
$GPGSV,4,3,14,09,65,261,40,10,70,289,38,11,75,317,37,12,20,345,39*74
$GPGSV,4,4,14,13,25,013,41,14,30,041,36,,,,,,,,*78
$GPRMC,100010.00,A,3958.8967,N,11620.6551,E,2.1,51.11,010526,,,A*5D
$GPGGA,100010.00,3958.8967,N,11620.6551,E,1,12,0.9,52.1,M,0.0,M,,*64
$GPGSA,A,3,01,02,03,04,05,06,07,08,09,10,11,12,1.6,0.9,1.3*3D
$GPGSV,4,1,14,01,25,038,38,02,30,066,40,03,35,094,37,04,40,122,41*72
$GPGSV,4,2,14,05,45,150,39,06,50,178,36,07,55,206,42,08,60,234,35*70
$GPGSV,4,3,14,09,65,262,40,10,70,290,38,11,75,318,37,12,20,346,39*73
$GPGSV,4,4,14,13,25,014,41,14,30,042,36,,,,,,,,*7C
$GPRMC,100011.00,A,3958.8971,N,11620.6557,E,2.1,51.14,010526,,,A*58
$GPGGA,100011.00,3958.8971,N,11620.6557,E,1,12,0.9,52.1,M,0.0,M,,*64
$GPGSA,A,3,01,02,03,04,05,06,07,08,09,10,11,12,1.6,0.9,1.3*3D
$GPGSV,4,1,14,01,25,039,38,02,30,067,40,03,35,095,37,04,40,123,41*72
$GPGSV,4,2,14,05,45,151,39,06,50,179,36,07,55,207,42,08,60,235,35*70
$GPGSV,4,3,14,09,65,263,40,10,70,291,38,11,75,319,37,12,20,347,39*73
$GPGSV,4,4,14,13,25,015,41,14,30,043,36,,,,,,,,*7C
$GPRMC,100012.00,A,3958.8974,N,11620.6563,E,2.1,51.18,010526,,,A*55
$GPGGA,100012.00,3958.8974,N,11620.6563,E,1,12,0.9,52.2,M,0.0,M,,*66
$GPGSA,A,3,01,02,03,04,05,06,07,08,09,10,11,12,1.6,0.9,1.3*3D
$GPGSV,4,1,14,01,25,040,38,02,30,068,40,03,35,096,37,04,40,124,41*77
$GPGSV,4,2,14,05,45,152,39,06,50,180,36,07,55,208,42,08,60,236,35*79
$GPGSV,4,3,14,09,65,264,40,10,70,292,38,11,75,320,37,12,20,348,39*72
$GPGSV,4,4,14,13,25,016,41,14,30,044,36,,,,,,,,*78
$GPRMC,100013.00,A,3958.8978,N,11620.6569,E,2.1,51.23,010526,,,A*5A
$GPGGA,100013.00,3958.8978,N,11620.6569,E,1,12,0.9,52.2,M,0.0,M,,*61
$GPGSA,A,3,01,02,03,04,05,06,07,08,09,10,11,12,1.6,0.9,1.3*3D
$GPGSV,4,1,14,01,25,041,38,02,30,069,40,03,35,097,37,04,40,125,41*77
$GPGSV,4,2,14,05,45,153,39,06,50,181,36,07,55,209,42,08,60,237,35*79
$GPGSV,4,3,14,09,65,265,40,10,70,293,38,11,75,321,37,12,20,349,39*72
$GPGSV,4,4,14,13,25,017,41,14,30,045,36,,,,,,,,*78
$GPRMC,100014.00,A,3958.8982,N,11620.6575,E,2.1,51.28,010526,,,A*5E
$GPGGA,100014.00,3958.8982,N,11620.6575,E,1,12,0.9,52.2,M,0.0,M,,*6E
$GPGSA,A,3,01,02,03,04,05,06,07,08,09,10,11,12,1.6,0.9,1.3*3D
$GPGSV,4,1,14,01,25,042,38,02,30,070,40,03,35,098,37,04,40,126,41*70
$GPGSV,4,2,14,05,45,154,39,06,50,182,36,07,55,210,42,08,60,238,35*7A
$GPGSV,4,3,14,09,65,266,40,10,70,294,38,11,75,322,37,12,20,350,39*7D
$GPGSV,4,4,14,13,25,018,41,14,30,046,36,,,,,,,,*74
$GPRMC,100015.00,A,3958.8985,N,11620.6580,E,2.1,51.34,010526,,,A*5F
$GPGGA,100015.00,3958.8985,N,11620.6580,E,1,12,0.9,52.2,M,0.0,M,,*62
$GPGSA,A,3,01,02,03,04,05,06,07,08,09,10,11,12,1.6,0.9,1.3*3D
$GPGSV,4,1,14,01,25,043,38,02,30,071,40,03,35,099,37,04,40,127,41*70
$GPGSV,4,2,14,05,45,155,39,06,50,183,36,07,55,211,42,08,60,239,35*7A
$GPGSV,4,3,14,09,65,267,40,10,70,295,38,11,75,323,37,12,20,351,39*7D
$GPGSV,4,4,14,13,25,019,41,14,30,047,36,,,,,,,,*74
$GPRMC,100016.00,A,3958.8989,N,11620.6586,E,2.1,51.40,010526,,,A*55
$GPGGA,100016.00,3958.8989,N,11620.6586,E,1,12,0.9,52.2,M,0.0,M,,*6B
$GPGSA,A,3,01,02,03,04,05,06,07,08,09,10,11,12,1.6,0.9,1.3*3D
$GPGSV,4,1,14,01,25,044,38,02,30,072,40,03,35,100,37,04,40,128,41*7A
$GPGSV,4,2,14,05,45,156,39,06,50,184,36,07,55,212,42,08,60,240,35*73
$GPGSV,4,3,14,09,65,268,40,10,70,296,38,11,75,324,37,12,20,352,39*75
$GPGSV,4,4,14,13,25,020,41,14,30,048,36,,,,,,,,*71
$GPRMC,100017.00,A,3958.8992,N,11620.6592,E,2.1,51.47,010526,,,A*5C
$GPGGA,100017.00,3958.8992,N,11620.6592,E,1,12,0.9,52.2,M,0.0,M,,*65
$GPGSA,A,3,01,02,03,04,05,06,07,08,09,10,11,12,1.6,0.9,1.3*3D
$GPGSV,4,1,14,01,25,045,38,02,30,073,40,03,35,101,37,04,40,129,41*7A
$GPGSV,4,2,14,05,45,157,39,06,50,185,36,07,55,213,42,08,60,241,35*73
$GPGSV,4,3,14,09,65,269,40,10,70,297,38,11,75,325,37,12,20,353,39*75
$GPGSV,4,4,14,13,25,021,41,14,30,049,36,,,,,,,,*71
$GPRMC,100018.00,A,3958.8996,N,11620.6598,E,2.1,51.53,010526,,,A*58
$GPGGA,100018.00,3958.8996,N,11620.6598,E,1,12,0.9,52.2,M,0.0,M,,*64
$GPGSA,A,3,01,02,03,04,05,06,07,08,09,10,11,12,1.6,0.9,1.3*3D
$GPGSV,4,1,14,01,25,046,38,02,30,074,40,03,35,102,37,04,40,130,41*75
$GPGSV,4,2,14,05,45,158,39,06,50,186,36,07,55,214,42,08,60,242,35*7B
$GPGSV,4,3,14,09,65,270,40,10,70,298,38,11,75,326,37,12,20,354,39*76
$GPGSV,4,4,14,13,25,022,41,14,30,050,36,,,,,,,,*7A
$GPRMC,100019.00,A,3958.9000,N,11620.6604,E,2.1,51.60,010526,,,A*58
$GPGGA,100019.00,3958.9000,N,11620.6604,E,1,12,0.9,52.2,M,0.0,M,,*64
$GPGSA,A,3,01,02,03,04,05,06,07,08,09,10,11,12,1.6,0.9,1.3*3D
$GPGSV,4,1,14,01,25,047,38,02,30,075,40,03,35,103,37,04,40,131,41*75
$GPGSV,4,2,14,05,45,159,39,06,50,187,36,07,55,215,42,08,60,243,35*7B
$GPGSV,4,3,14,09,65,271,40,10,70,299,38,11,75,327,37,12,20,355,39*76
$GPGSV,4,4,14,13,25,023,41,14,30,051,36,,,,,,,,*7A
$GPRMC,100020.00,A,3958.9003,N,11620.6610,E,2.1,51.68,010526,,,A*5C
$GPGGA,100020.00,3958.9003,N,11620.6610,E,1,12,0.9,52.2,M,0.0,M,,*68
$GPGSA,A,3,01,02,03,04,05,06,07,08,09,10,11,12,1.6,0.9,1.3*3D
$GPGSV,4,1,14,01,25,048,38,02,30,076,40,03,35,104,37,04,40,132,41*7D
$GPGSV,4,2,14,05,45,160,39,06,50,188,36,07,55,216,42,08,60,244,35*7A
$GPGSV,4,3,14,09,65,272,40,10,70,300,38,11,75,328,37,12,20,356,39*78
$GPGSV,4,4,14,13,25,024,41,14,30,052,36,,,,,,,,*7E
$GPRMC,100021.00,A,3958.9007,N,11620.6616,E,2.1,51.75,010526,,,A*53
$GPGGA,100021.00,3958.9007,N,11620.6616,E,1,12,0.9,52.3,M,0.0,M,,*6A
$GPGSA,A,3,01,02,03,04,05,06,07,08,09,10,11,12,1.6,0.9,1.3*3D
$GPGSV,4,1,14,01,25,049,38,02,30,077,40,03,35,105,37,04,40,133,41*7D
$GPGSV,4,2,14,05,45,161,39,06,50,189,36,07,55,217,42,08,60,245,35*7A
$GPGSV,4,3,14,09,65,273,40,10,70,301,38,11,75,329,37,12,20,357,39*78
$GPGSV,4,4,14,13,25,025,41,14,30,053,36,,,,,,,,*7E
$GPRMC,100022.00,A,3958.9010,N,11620.6622,E,2.1,51.83,010526,,,A*58
$GPGGA,100022.00,3958.9010,N,11620.6622,E,1,12,0.9,52.3,M,0.0,M,,*68
$GPGSA,A,3,01,02,03,04,05,06,07,08,09,10,11,12,1.6,0.9,1.3*3D
$GPGSV,4,1,14,01,25,050,38,02,30,078,40,03,35,106,37,04,40,134,41*7E
$GPGSV,4,2,14,05,45,162,39,06,50,190,36,07,55,218,42,08,60,246,35*7D
$GPGSV,4,3,14,09,65,274,40,10,70,302,38,11,75,330,37,12,20,358,39*7B
$GPGSV,4,4,14,13,25,026,41,14,30,054,36,,,,,,,,*7A
$GPRMC,100023.00,A,3958.9014,N,11620.6628,E,2.1,51.90,010526,,,A*55
$GPGGA,100023.00,3958.9014,N,11620.6628,E,1,12,0.8,52.3,M,0.0,M,,*66
$GPGSA,A,3,01,02,03,04,05,06,07,08,09,10,11,12,1.5,0.8,1.2*3E
$GPGSV,4,1,14,01,25,051,38,02,30,079,40,03,35,107,37,04,40,135,41*7E
$GPGSV,4,2,14,05,45,163,39,06,50,191,36,07,55,219,42,08,60,247,35*7D
$GPGSV,4,3,14,09,65,275,40,10,70,303,38,11,75,331,37,12,20,359,39*7B
$GPGSV,4,4,14,13,25,027,41,14,30,055,36,,,,,,,,*7A
$GPRMC,100024.00,A,3958.9017,N,11620.6634,E,2.1,51.97,010526,,,A*5B
$GPGGA,100024.00,3958.9017,N,11620.6634,E,1,12,0.8,52.3,M,0.0,M,,*6F
$GPGSA,A,3,01,02,03,04,05,06,07,08,09,10,11,12,1.5,0.8,1.2*3E
$GPGSV,4,1,14,01,25,052,38,02,30,080,40,03,35,108,37,04,40,136,41*77
$GPGSV,4,2,14,05,45,164,39,06,50,192,36,07,55,220,42,08,60,248,35*7C
$GPGSV,4,3,14,09,65,276,40,10,70,304,38,11,75,332,37,12,20,000,39*73
$GPGSV,4,4,14,13,25,028,41,14,30,056,36,,,,,,,,*76
$GPRMC,100025.00,A,3958.9021,N,11620.6640,E,2.1,52.05,010526,,,A*54
$GPGGA,100025.00,3958.9021,N,11620.6640,E,1,12,0.8,52.3,M,0.0,M,,*68
$GPGSA,A,3,01,02,03,04,05,06,07,08,09,10,11,12,1.5,0.8,1.2*3E
$GPGSV,4,1,14,01,25,053,38,02,30,081,40,03,35,109,37,04,40,137,41*77
$GPGSV,4,2,14,05,45,165,39,06,50,193,36,07,55,221,42,08,60,249,35*7C
$GPGSV,4,3,14,09,65,277,40,10,70,305,38,11,75,333,37,12,20,001,39*73
$GPGSV,4,4,14,13,25,029,41,14,30,057,36,,,,,,,,*76
$GPRMC,100026.00,A,3958.9024,N,11620.6646,E,2.1,52.12,010526,,,A*52
$GPGGA,100026.00,3958.9024,N,11620.6646,E,1,12,0.8,52.3,M,0.0,M,,*68
$GPGSA,A,3,01,02,03,04,05,06,07,08,09,10,11,12,1.5,0.8,1.2*3E
$GPGSV,4,1,14,01,25,054,38,02,30,082,40,03,35,110,37,04,40,138,41*74
$GPGSV,4,2,14,05,45,166,39,06,50,194,36,07,55,222,42,08,60,250,35*73
$GPGSV,4,3,14,09,65,278,40,10,70,306,38,11,75,334,37,12,20,002,39*7B
$GPGSV,4,4,14,13,25,030,41,14,30,058,36,,,,,,,,*71
$GPRMC,100027.00,A,3958.9028,N,11620.6651,E,2.1,52.19,010526,,,A*52
$GPGGA,100027.00,3958.9028,N,11620.6651,E,1,12,0.8,52.3,M,0.0,M,,*63
$GPGSA,A,3,01,02,03,04,05,06,07,08,09,10,11,12,1.5,0.8,1.2*3E
$GPGSV,4,1,14,01,25,055,38,02,30,083,40,03,35,111,37,04,40,139,41*74
$GPGSV,4,2,14,05,45,167,39,06,50,195,36,07,55,223,42,08,60,251,35*73
$GPGSV,4,3,14,09,65,279,40,10,70,307,38,11,75,335,37,12,20,003,39*7B
$GPGSV,4,4,14,13,25,031,41,14,30,059,36,,,,,,,,*71
$GPRMC,100028.00,A,3958.9031,N,11620.6657,E,2.1,52.25,010526,,,A*5C
$GPGGA,100028.00,3958.9031,N,11620.6657,E,1,12,0.8,52.3,M,0.0,M,,*62
$GPGSA,A,3,01,02,03,04,05,06,07,08,09,10,11,12,1.5,0.8,1.2*3E
$GPGSV,4,1,14,01,25,056,38,02,30,084,40,03,35,112,37,04,40,140,41*7D
$GPGSV,4,2,14,05,45,168,39,06,50,196,36,07,55,224,42,08,60,252,35*7B
$GPGSV,4,3,14,09,65,280,40,10,70,308,38,11,75,336,37,12,20,004,39*76
$GPGSV,4,4,14,13,25,032,41,14,30,060,36,,,,,,,,*78
$GPRMC,100029.00,A,3958.9035,N,11620.6663,E,2.1,52.31,010526,,,A*5B
$GPGGA,100029.00,3958.9035,N,11620.6663,E,1,12,0.8,52.3,M,0.0,M,,*60
$GPGSA,A,3,01,02,03,04,05,06,07,08,09,10,11,12,1.5,0.8,1.2*3E
$GPGSV,4,1,14,01,25,057,38,02,30,085,40,03,35,113,37,04,40,141,41*7D
$GPGSV,4,2,14,05,45,169,39,06,50,197,36,07,55,225,42,08,60,253,35*7B
$GPGSV,4,3,14,09,65,281,40,10,70,309,38,11,75,337,37,12,20,005,39*76
$GPGSV,4,4,14,13,25,033,41,14,30,061,36,,,,,,,,*78
$GPRMC,100030.00,A,3958.9038,N,11620.6669,E,2.1,52.37,010526,,,A*52
$GPGGA,100030.00,3958.9038,N,11620.6669,E,1,12,0.8,52.3,M,0.0,M,,*6F
$GPGSA,A,3,01,02,03,04,05,06,07,08,09,10,11,12,1.5,0.8,1.2*3E
$GPGSV,4,1,14,01,25,058,38,02,30,086,40,03,35,114,37,04,40,142,41*75
$GPGSV,4,2,14,05,45,170,39,06,50,198,36,07,55,226,42,08,60,254,35*78
$GPGSV,4,3,14,09,65,282,40,10,70,310,38,11,75,338,37,12,20,006,39*71
$GPGSV,4,4,14,13,25,034,41,14,30,062,36,,,,,,,,*7C
$GPRMC,100031.00,A,3958.9042,N,11620.6675,E,2.1,52.43,010526,,,A*50
$GPGGA,100031.00,3958.9042,N,11620.6675,E,1,12,0.8,52.3,M,0.0,M,,*6E
$GPGSA,A,3,01,02,03,04,05,06,07,08,09,10,11,12,1.5,0.8,1.2*3E
$GPGSV,4,1,14,01,25,059,38,02,30,087,40,03,35,115,37,04,40,143,41*75
$GPGSV,4,2,14,05,45,171,39,06,50,199,36,07,55,227,42,08,60,255,35*78
$GPGSV,4,3,14,09,65,283,40,10,70,311,38,11,75,339,37,12,20,007,39*71
$GPGSV,4,4,14,13,25,035,41,14,30,063,36,,,,,,,,*7C
$GPRMC,100032.00,A,3958.9045,N,11620.6681,E,2.1,52.48,010526,,,A*54
$GPGGA,100032.00,3958.9045,N,11620.6681,E,1,12,0.8,52.4,M,0.0,M,,*66
$GPGSA,A,3,01,02,03,04,05,06,07,08,09,10,11,12,1.5,0.8,1.2*3E
$GPGSV,4,1,14,01,25,060,38,02,30,088,40,03,35,116,37,04,40,144,41*74
$GPGSV,4,2,14,05,45,172,39,06,50,200,36,07,55,228,42,08,60,256,35*74
$GPGSV,4,3,14,09,65,284,40,10,70,312,38,11,75,340,37,12,20,008,39*74
$GPGSV,4,4,14,13,25,036,41,14,30,064,36,,,,,,,,*78
$GPRMC,100033.00,A,3958.9049,N,11620.6687,E,2.1,52.52,010526,,,A*54
$GPGGA,100033.00,3958.9049,N,11620.6687,E,1,12,0.8,52.4,M,0.0,M,,*6D
$GPGSA,A,3,01,02,03,04,05,06,07,08,09,10,11,12,1.5,0.8,1.2*3E
$GPGSV,4,1,14,01,25,061,38,02,30,089,40,03,35,117,37,04,40,145,41*74
$GPGSV,4,2,14,05,45,173,39,06,50,201,36,07,55,229,42,08,60,257,35*74
$GPGSV,4,3,14,09,65,285,40,10,70,313,38,11,75,341,37,12,20,009,39*74
$GPGSV,4,4,14,13,25,037,41,14,30,065,36,,,,,,,,*78
$GPRMC,100034.00,A,3958.9052,N,11620.6693,E,2.1,52.56,010526,,,A*58
$GPGGA,100034.00,3958.9052,N,11620.6693,E,1,12,0.8,52.4,M,0.0,M,,*65
$GPGSA,A,3,01,02,03,04,05,06,07,08,09,10,11,12,1.5,0.8,1.2*3E
$GPGSV,4,1,14,01,25,062,38,02,30,090,40,03,35,118,37,04,40,146,41*73
$GPGSV,4,2,14,05,45,174,39,06,50,202,36,07,55,230,42,08,60,258,35*77
$GPGSV,4,3,14,09,65,286,40,10,70,314,38,11,75,342,37,12,20,010,39*7B
$GPGSV,4,4,14,13,25,038,41,14,30,066,36,,,,,,,,*74
$GPRMC,100035.00,A,3958.9056,N,11620.6699,E,2.1,52.59,010526,,,A*58
$GPGGA,100035.00,3958.9056,N,11620.6699,E,1,12,0.7,52.4,M,0.0,M,,*65
$GPGSA,A,3,01,02,03,04,05,06,07,08,09,10,11,12,1.4,0.7,1.1*33
$GPGSV,4,1,14,01,25,063,38,02,30,091,40,03,35,119,37,04,40,147,41*73
$GPGSV,4,2,14,05,45,175,39,06,50,203,36,07,55,231,42,08,60,259,35*77
$GPGSV,4,3,14,09,65,287,40,10,70,315,38,11,75,343,37,12,20,011,39*7B
$GPGSV,4,4,14,13,25,039,41,14,30,067,36,,,,,,,,*74
$GPRMC,100036.00,A,3958.9059,N,11620.6705,E,2.1,52.62,010526,,,A*58
$GPGGA,100036.00,3958.9059,N,11620.6705,E,1,12,0.7,52.4,M,0.0,M,,*6D
$GPGSA,A,3,01,02,03,04,05,06,07,08,09,10,11,12,1.4,0.7,1.1*33
$GPGSV,4,1,14,01,25,064,38,02,30,092,40,03,35,120,37,04,40,148,41*72
$GPGSV,4,2,14,05,45,176,39,06,50,204,36,07,55,232,42,08,60,260,35*7A
$GPGSV,4,3,14,09,65,288,40,10,70,316,38,11,75,344,37,12,20,012,39*73
$GPGSV,4,4,14,13,25,040,41,14,30,068,36,,,,,,,,*75
$GPRMC,100037.00,A,3958.9063,N,11620.6711,E,2.1,52.64,010526,,,A*53
$GPGGA,100037.00,3958.9063,N,11620.6711,E,1,12,0.7,52.4,M,0.0,M,,*60
$GPGSA,A,3,01,02,03,04,05,06,07,08,09,10,11,12,1.4,0.7,1.1*33
$GPGSV,4,1,14,01,25,065,38,02,30,093,40,03,35,121,37,04,40,149,41*72
$GPGSV,4,2,14,05,45,177,39,06,50,205,36,07,55,233,42,08,60,261,35*7A
$GPGSV,4,3,14,09,65,289,40,10,70,317,38,11,75,345,37,12,20,013,39*73
$GPGSV,4,4,14,13,25,041,41,14,30,069,36,,,,,,,,*75
$GPRMC,100038.00,A,3958.9066,N,11620.6717,E,2.1,52.65,010526,,,A*5E
$GPGGA,100038.00,3958.9066,N,11620.6717,E,1,12,0.7,52.4,M,0.0,M,,*6C
$GPGSA,A,3,01,02,03,04,05,06,07,08,09,10,11,12,1.4,0.7,1.1*33
$GPGSV,4,1,14,01,25,066,38,02,30,094,40,03,35,122,37,04,40,150,41*7D
$GPGSV,4,2,14,05,45,178,39,06,50,206,36,07,55,234,42,08,60,262,35*72
$GPGSV,4,3,14,09,65,290,40,10,70,318,38,11,75,346,37,12,20,014,39*70
$GPGSV,4,4,14,13,25,042,41,14,30,070,36,,,,,,,,*7E
$GPRMC,100039.00,A,3958.9070,N,11620.6723,E,2.1,52.66,010526,,,A*5C
$GPGGA,100039.00,3958.9070,N,11620.6723,E,1,12,0.7,52.4,M,0.0,M,,*6D
$GPGSA,A,3,01,02,03,04,05,06,07,08,09,10,11,12,1.4,0.7,1.1*33
$GPGSV,4,1,14,01,25,067,38,02,30,095,40,03,35,123,37,04,40,151,41*7D
$GPGSV,4,2,14,05,45,179,39,06,50,207,36,07,55,235,42,08,60,263,35*72
$GPGSV,4,3,14,09,65,291,40,10,70,319,38,11,75,347,37,12,20,015,39*70
$GPGSV,4,4,14,13,25,043,41,14,30,071,36,,,,,,,,*7E
$GPRMC,100040.00,A,3958.9073,N,11620.6729,E,2.1,52.66,010526,,,A*5B
$GPGGA,100040.00,3958.9073,N,11620.6729,E,1,12,0.7,52.4,M,0.0,M,,*6A
$GPGSA,A,3,01,02,03,04,05,06,07,08,09,10,11,12,1.4,0.7,1.1*33
$GPGSV,4,1,14,01,25,068,38,02,30,096,40,03,35,124,37,04,40,152,41*75
$GPGSV,4,2,14,05,45,180,39,06,50,208,36,07,55,236,42,08,60,264,35*7F
$GPGSV,4,3,14,09,65,292,40,10,70,320,38,11,75,348,37,12,20,016,39*75
$GPGSV,4,4,14,13,25,044,41,14,30,072,36,,,,,,,,*7A
$GPRMC,100041.00,A,3958.9077,N,11620.6735,E,2.1,52.66,010526,,,A*53
$GPGGA,100041.00,3958.9077,N,11620.6735,E,1,12,0.7,52.4,M,0.0,M,,*62
$GPGSA,A,3,01,02,03,04,05,06,07,08,09,10,11,12,1.4,0.7,1.1*33
$GPGSV,4,1,14,01,25,069,38,02,30,097,40,03,35,125,37,04,40,153,41*75
$GPGSV,4,2,14,05,45,181,39,06,50,209,36,07,55,237,42,08,60,265,35*7F
$GPGSV,4,3,14,09,65,293,40,10,70,321,38,11,75,349,37,12,20,017,39*75
$GPGSV,4,4,14,13,25,045,41,14,30,073,36,,,,,,,,*7A
$GPRMC,100042.00,A,3958.9080,N,11620.6741,E,2.1,52.65,010526,,,A*58
$GPGGA,100042.00,3958.9080,N,11620.6741,E,1,12,0.7,52.4,M,0.0,M,,*6A
$GPGSA,A,3,01,02,03,04,05,06,07,08,09,10,11,12,1.4,0.7,1.1*33
$GPGSV,4,1,14,01,25,070,38,02,30,098,40,03,35,126,37,04,40,154,41*76
$GPGSV,4,2,14,05,45,182,39,06,50,210,36,07,55,238,42,08,60,266,35*78
$GPGSV,4,3,14,09,65,294,40,10,70,322,38,11,75,350,37,12,20,018,39*76
$GPGSV,4,4,14,13,25,046,41,14,30,074,36,,,,,,,,*7E
$GPRMC,100043.00,A,3958.9084,N,11620.6747,E,2.1,52.63,010526,,,A*5D
$GPGGA,100043.00,3958.9084,N,11620.6747,E,1,12,0.7,52.4,M,0.0,M,,*69
$GPGSA,A,3,01,02,03,04,05,06,07,08,09,10,11,12,1.4,0.7,1.1*33
$GPGSV,4,1,14,01,25,071,38,02,30,099,40,03,35,127,37,04,40,155,41*76
$GPGSV,4,2,14,05,45,183,39,06,50,211,36,07,55,239,42,08,60,267,35*78
$GPGSV,4,3,14,09,65,295,40,10,70,323,38,11,75,351,37,12,20,019,39*76
$GPGSV,4,4,14,13,25,047,41,14,30,075,36,,,,,,,,*7E
$GPRMC,100044.00,A,3958.9087,N,11620.6753,E,2.1,52.61,010526,,,A*5E
$GPGGA,100044.00,3958.9087,N,11620.6753,E,1,12,0.7,52.4,M,0.0,M,,*68
$GPGSA,A,3,01,02,03,04,05,06,07,08,09,10,11,12,1.4,0.7,1.1*33
$GPGSV,4,1,14,01,25,072,38,02,30,100,40,03,35,128,37,04,40,156,41*78
$GPGSV,4,2,14,05,45,184,39,06,50,212,36,07,55,240,42,08,60,268,35*7D
$GPGSV,4,3,14,09,65,296,40,10,70,324,38,11,75,352,37,12,20,020,39*7B
$GPGSV,4,4,14,13,25,048,41,14,30,076,36,,,,,,,,*72
$GPRMC,100045.00,A,3958.9091,N,11620.6759,E,2.1,52.58,010526,,,A*58
$GPGGA,100045.00,3958.9091,N,11620.6759,E,1,12,0.7,52.4,M,0.0,M,,*64
$GPGSA,A,3,01,02,03,04,05,06,07,08,09,10,11,12,1.4,0.7,1.1*33
$GPGSV,4,1,14,01,25,073,38,02,30,101,40,03,35,129,37,04,40,157,41*78
$GPGSV,4,2,14,05,45,185,39,06,50,213,36,07,55,241,42,08,60,269,35*7D
$GPGSV,4,3,14,09,65,297,40,10,70,325,38,11,75,353,37,12,20,021,39*7B
$GPGSV,4,4,14,13,25,049,41,14,30,077,36,,,,,,,,*72
$GPRMC,100046.00,A,3958.9095,N,11620.6765,E,2.1,52.55,010526,,,A*5D
$GPGGA,100046.00,3958.9095,N,11620.6765,E,1,12,0.7,52.4,M,0.0,M,,*6C
$GPGSA,A,3,01,02,03,04,05,06,07,08,09,10,11,12,1.4,0.7,1.1*33
$GPGSV,4,1,14,01,25,074,38,02,30,102,40,03,35,130,37,04,40,158,41*7B
$GPGSV,4,2,14,05,45,186,39,06,50,214,36,07,55,242,42,08,60,270,35*72
$GPGSV,4,3,14,09,65,298,40,10,70,326,38,11,75,354,37,12,20,022,39*73
$GPGSV,4,4,14,13,25,050,41,14,30,078,36,,,,,,,,*75
$GPRMC,100047.00,A,3958.9098,N,11620.6771,E,2.1,52.51,010526,,,A*50
$GPGGA,100047.00,3958.9098,N,11620.6771,E,1,12,0.7,52.4,M,0.0,M,,*65
$GPGSA,A,3,01,02,03,04,05,06,07,08,09,10,11,12,1.4,0.7,1.1*33
$GPGSV,4,1,14,01,25,075,38,02,30,103,40,03,35,131,37,04,40,159,41*7B
$GPGSV,4,2,14,05,45,187,39,06,50,215,36,07,55,243,42,08,60,271,35*72
$GPGSV,4,3,14,09,65,299,40,10,70,327,38,11,75,355,37,12,20,023,39*73
$GPGSV,4,4,14,13,25,051,41,14,30,079,36,,,,,,,,*75
$GPRMC,100048.00,A,3958.9102,N,11620.6777,E,2.1,52.47,010526,,,A*5C
$GPGGA,100048.00,3958.9102,N,11620.6777,E,1,12,0.7,52.4,M,0.0,M,,*6E
$GPGSA,A,3,01,02,03,04,05,06,07,08,09,10,11,12,1.4,0.7,1.1*33
$GPGSV,4,1,14,01,25,076,38,02,30,104,40,03,35,132,37,04,40,160,41*76
$GPGSV,4,2,14,05,45,188,39,06,50,216,36,07,55,244,42,08,60,272,35*7A
$GPGSV,4,3,14,09,65,300,40,10,70,328,38,11,75,356,37,12,20,024,39*79
$GPGSV,4,4,14,13,25,052,41,14,30,080,36,,,,,,,,*70
$GPRMC,100049.00,A,3958.9105,N,11620.6783,E,2.1,52.43,010526,,,A*55
$GPGGA,100049.00,3958.9105,N,11620.6783,E,1,12,0.7,52.4,M,0.0,M,,*63
$GPGSA,A,3,01,02,03,04,05,06,07,08,09,10,11,12,1.4,0.7,1.1*33
$GPGSV,4,1,14,01,25,077,38,02,30,105,40,03,35,133,37,04,40,161,41*76
$GPGSV,4,2,14,05,45,189,39,06,50,217,36,07,55,245,42,08,60,273,35*7A
$GPGSV,4,3,14,09,65,301,40,10,70,329,38,11,75,357,37,12,20,025,39*79
$GPGSV,4,4,14,13,25,053,41,14,30,081,36,,,,,,,,*70
$GPRMC,100050.00,A,3958.9109,N,11620.6789,E,2.1,52.38,010526,,,A*57
$GPGGA,100050.00,3958.9109,N,11620.6789,E,1,12,0.7,52.4,M,0.0,M,,*6D
$GPGSA,A,3,01,02,03,04,05,06,07,08,09,10,11,12,1.4,0.7,1.1*33
$GPGSV,4,1,14,01,25,078,38,02,30,106,40,03,35,134,37,04,40,162,41*7E
$GPGSV,4,2,14,05,45,190,39,06,50,218,36,07,55,246,42,08,60,274,35*79
$GPGSV,4,3,14,09,65,302,40,10,70,330,38,11,75,358,37,12,20,026,39*7E
$GPGSV,4,4,14,13,25,054,41,14,30,082,36,,,,,,,,*74
$GPRMC,100051.00,A,3958.9112,N,11620.6795,E,2.1,52.33,010526,,,A*5A
$GPGGA,100051.00,3958.9112,N,11620.6795,E,1,12,0.8,52.4,M,0.0,M,,*64
$GPGSA,A,3,01,02,03,04,05,06,07,08,09,10,11,12,1.5,0.8,1.2*3E
$GPGSV,4,1,14,01,25,079,38,02,30,107,40,03,35,135,37,04,40,163,41*7E
$GPGSV,4,2,14,05,45,191,39,06,50,219,36,07,55,247,42,08,60,275,35*79
$GPGSV,4,3,14,09,65,303,40,10,70,331,38,11,75,359,37,12,20,027,39*7E
$GPGSV,4,4,14,13,25,055,41,14,30,083,36,,,,,,,,*74
$GPRMC,100052.00,A,3958.9116,N,11620.6801,E,2.1,52.27,010526,,,A*5A
$GPGGA,100052.00,3958.9116,N,11620.6801,E,1,12,0.8,52.4,M,0.0,M,,*61
$GPGSA,A,3,01,02,03,04,05,06,07,08,09,10,11,12,1.5,0.8,1.2*3E
$GPGSV,4,1,14,01,25,080,38,02,30,108,40,03,35,136,37,04,40,164,41*73
$GPGSV,4,2,14,05,45,192,39,06,50,220,36,07,55,248,42,08,60,276,35*7C
$GPGSV,4,3,14,09,65,304,40,10,70,332,38,11,75,000,37,12,20,028,39*7A
$GPGSV,4,4,14,13,25,056,41,14,30,084,36,,,,,,,,*70
$GPRMC,100053.00,A,3958.9120,N,11620.6807,E,2.1,52.22,010526,,,A*5D
$GPGGA,100053.00,3958.9120,N,11620.6807,E,1,12,0.8,52.4,M,0.0,M,,*63
$GPGSA,A,3,01,02,03,04,05,06,07,08,09,10,11,12,1.5,0.8,1.2*3E
$GPGSV,4,1,14,01,25,081,38,02,30,109,40,03,35,137,37,04,40,165,41*73
$GPGSV,4,2,14,05,45,193,39,06,50,221,36,07,55,249,42,08,60,277,35*7C
$GPGSV,4,3,14,09,65,305,40,10,70,333,38,11,75,001,37,12,20,029,39*7A
$GPGSV,4,4,14,13,25,057,41,14,30,085,36,,,,,,,,*70
$GPRMC,100054.00,A,3958.9123,N,11620.6813,E,2.0,52.16,010526,,,A*5A
$GPGGA,100054.00,3958.9123,N,11620.6813,E,1,12,0.8,52.4,M,0.0,M,,*62
$GPGSA,A,3,01,02,03,04,05,06,07,08,09,10,11,12,1.5,0.8,1.2*3E
$GPGSV,4,1,14,01,25,082,38,02,30,110,40,03,35,138,37,04,40,166,41*74
$GPGSV,4,2,14,05,45,194,39,06,50,222,36,07,55,250,42,08,60,278,35*7F
$GPGSV,4,3,14,09,65,306,40,10,70,334,38,11,75,002,37,12,20,030,39*75
$GPGSV,4,4,14,13,25,058,41,14,30,086,36,,,,,,,,*7C
$GPRMC,100055.00,A,3958.9127,N,11620.6819,E,2.0,52.11,010526,,,A*52
$GPGGA,100055.00,3958.9127,N,11620.6819,E,1,12,0.8,52.4,M,0.0,M,,*6D
$GPGSA,A,3,01,02,03,04,05,06,07,08,09,10,11,12,1.5,0.8,1.2*3E
$GPGSV,4,1,14,01,25,083,38,02,30,111,40,03,35,139,37,04,40,167,41*74
$GPGSV,4,2,14,05,45,195,39,06,50,223,36,07,55,251,42,08,60,279,35*7F
$GPGSV,4,3,14,09,65,307,40,10,70,335,38,11,75,003,37,12,20,031,39*75
$GPGSV,4,4,14,13,25,059,41,14,30,087,36,,,,,,,,*7C
$GPRMC,100056.00,A,3958.9130,N,11620.6826,E,2.0,52.05,010526,,,A*5E
$GPGGA,100056.00,3958.9130,N,11620.6826,E,1,12,0.8,52.4,M,0.0,M,,*64
$GPGSA,A,3,01,02,03,04,05,06,07,08,09,10,11,12,1.5,0.8,1.2*3E
$GPGSV,4,1,14,01,25,084,38,02,30,112,40,03,35,140,37,04,40,168,41*71
$GPGSV,4,2,14,05,45,196,39,06,50,224,36,07,55,252,42,08,60,280,35*7E
$GPGSV,4,3,14,09,65,308,40,10,70,336,38,11,75,004,37,12,20,032,39*7D
$GPGSV,4,4,14,13,25,060,41,14,30,088,36,,,,,,,,*79
$GPRMC,100057.00,A,3958.9134,N,11620.6832,E,2.0,51.99,010526,,,A*58
$GPGGA,100057.00,3958.9134,N,11620.6832,E,1,12,0.8,52.4,M,0.0,M,,*64
$GPGSA,A,3,01,02,03,04,05,06,07,08,09,10,11,12,1.5,0.8,1.2*3E
$GPGSV,4,1,14,01,25,085,38,02,30,113,40,03,35,141,37,04,40,169,41*71
$GPGSV,4,2,14,05,45,197,39,06,50,225,36,07,55,253,42,08,60,281,35*7E
$GPGSV,4,3,14,09,65,309,40,10,70,337,38,11,75,005,37,12,20,033,39*7D
$GPGSV,4,4,14,13,25,061,41,14,30,089,36,,,,,,,,*79
$GPRMC,100058.00,A,3958.9138,N,11620.6838,E,2.0,51.93,010526,,,A*5B
$GPGGA,100058.00,3958.9138,N,11620.6838,E,1,12,0.8,52.4,M,0.0,M,,*6D
$GPGSA,A,3,01,02,03,04,05,06,07,08,09,10,11,12,1.5,0.8,1.2*3E
$GPGSV,4,1,14,01,25,086,38,02,30,114,40,03,35,142,37,04,40,170,41*7E
$GPGSV,4,2,14,05,45,198,39,06,50,226,36,07,55,254,42,08,60,282,35*76
$GPGSV,4,3,14,09,65,310,40,10,70,338,38,11,75,006,37,12,20,034,39*7E
$GPGSV,4,4,14,13,25,062,41,14,30,090,36,,,,,,,,*72
$GPRMC,100059.00,A,3958.9141,N,11620.6844,E,2.0,51.88,010526,,,A*55
$GPGGA,100059.00,3958.9141,N,11620.6844,E,1,12,0.8,52.4,M,0.0,M,,*69
$GPGSA,A,3,01,02,03,04,05,06,07,08,09,10,11,12,1.5,0.8,1.2*3E
$GPGSV,4,1,14,01,25,087,38,02,30,115,40,03,35,143,37,04,40,171,41*7E
$GPGSV,4,2,14,05,45,199,39,06,50,227,36,07,55,255,42,08,60,283,35*76
$GPGSV,4,3,14,09,65,311,40,10,70,339,38,11,75,007,37,12,20,035,39*7E
$GPGSV,4,4,14,13,25,063,41,14,30,091,36,,,,,,,,*72
$GPRMC,100100.00,A,3958.9145,N,11620.6850,E,2.0,51.82,010526,,,A*53
$GPGGA,100100.00,3958.9145,N,11620.6850,E,1,12,0.8,52.4,M,0.0,M,,*65
$GPGSA,A,3,01,02,03,04,05,06,07,08,09,10,11,12,1.5,0.8,1.2*3E
$GPGSV,4,1,14,01,25,088,38,02,30,116,40,03,35,144,37,04,40,172,41*76
$GPGSV,4,2,14,05,45,200,39,06,50,228,36,07,55,256,42,08,60,284,35*7E
$GPGSV,4,3,14,09,65,312,40,10,70,340,38,11,75,008,37,12,20,036,39*7F
$GPGSV,4,4,14,13,25,064,41,14,30,092,36,,,,,,,,*76
$GPRMC,100101.00,A,3958.9147,N,11620.6846,E,2.0,304.93,010526,,,A*64
$GPGGA,100101.00,3958.9147,N,11620.6846,E,1,12,0.8,52.4,M,0.0,M,,*61
$GPGSA,A,3,01,02,03,04,05,06,07,08,09,10,11,12,1.5,0.8,1.2*3E
$GPGSV,4,1,14,01,25,089,38,02,30,117,40,03,35,145,37,04,40,173,41*76
$GPGSV,4,2,14,05,45,201,39,06,50,229,36,07,55,257,42,08,60,285,35*7E
$GPGSV,4,3,14,09,65,313,40,10,70,341,38,11,75,009,37,12,20,037,39*7F
$GPGSV,4,4,14,13,25,065,41,14,30,093,36,,,,,,,,*76
$GPRMC,100102.00,A,3958.9149,N,11620.6843,E,2.0,305.03,010526,,,A*64
$GPGGA,100102.00,3958.9149,N,11620.6843,E,1,12,0.8,52.4,M,0.0,M,,*69
$GPGSA,A,3,01,02,03,04,05,06,07,08,09,10,11,12,1.5,0.8,1.2*3E
$GPGSV,4,1,14,01,25,090,38,02,30,118,40,03,35,146,37,04,40,174,41*75
$GPGSV,4,2,14,05,45,202,39,06,50,230,36,07,55,258,42,08,60,286,35*79
$GPGSV,4,3,14,09,65,314,40,10,70,342,38,11,75,010,37,12,20,038,39*7C
$GPGSV,4,4,14,13,25,066,41,14,30,094,36,,,,,,,,*72
$GPRMC,100103.00,A,3958.9151,N,11620.6839,E,2.0,305.11,010526,,,A*62
$GPGGA,100103.00,3958.9151,N,11620.6839,E,1,12,0.9,52.3,M,0.0,M,,*6A
$GPGSA,A,3,01,02,03,04,05,06,07,08,09,10,11,12,1.6,0.9,1.3*3D
$GPGSV,4,1,14,01,25,091,38,02,30,119,40,03,35,147,37,04,40,175,41*75
$GPGSV,4,2,14,05,45,203,39,06,50,231,36,07,55,259,42,08,60,287,35*79
$GPGSV,4,3,14,09,65,315,40,10,70,343,38,11,75,011,37,12,20,039,39*7C
$GPGSV,4,4,14,13,25,067,41,14,30,095,36,,,,,,,,*72
$GPRMC,100104.00,A,3958.9153,N,11620.6836,E,2.0,305.18,010526,,,A*61
$GPGGA,100104.00,3958.9153,N,11620.6836,E,1,12,0.9,52.3,M,0.0,M,,*60
$GPGSA,A,3,01,02,03,04,05,06,07,08,09,10,11,12,1.6,0.9,1.3*3D
$GPGSV,4,1,14,01,25,092,38,02,30,120,40,03,35,148,37,04,40,176,41*70
$GPGSV,4,2,14,05,45,204,39,06,50,232,36,07,55,260,42,08,60,288,35*78
$GPGSV,4,3,14,09,65,316,40,10,70,344,38,11,75,012,37,12,20,040,39*75
$GPGSV,4,4,14,13,25,068,41,14,30,096,36,,,,,,,,*7E
$GPRMC,100105.00,A,3958.9155,N,11620.6832,E,2.0,305.23,010526,,,A*6A
$GPGGA,100105.00,3958.9155,N,11620.6832,E,1,12,0.9,52.3,M,0.0,M,,*63
$GPGSA,A,3,01,02,03,04,05,06,07,08,09,10,11,12,1.6,0.9,1.3*3D
$GPGSV,4,1,14,01,25,093,38,02,30,121,40,03,35,149,37,04,40,177,41*70
$GPGSV,4,2,14,05,45,205,39,06,50,233,36,07,55,261,42,08,60,289,35*78
$GPGSV,4,3,14,09,65,317,40,10,70,345,38,11,75,013,37,12,20,041,39*75
$GPGSV,4,4,14,13,25,069,41,14,30,097,36,,,,,,,,*7E
$GPRMC,100106.00,A,3958.9156,N,11620.6829,E,2.0,305.26,010526,,,A*65
$GPGGA,100106.00,3958.9156,N,11620.6829,E,1,12,0.9,52.3,M,0.0,M,,*69
$GPGSA,A,3,01,02,03,04,05,06,07,08,09,10,11,12,1.6,0.9,1.3*3D
$GPGSV,4,1,14,01,25,094,38,02,30,122,40,03,35,150,37,04,40,178,41*73
$GPGSV,4,2,14,05,45,206,39,06,50,234,36,07,55,262,42,08,60,290,35*77
$GPGSV,4,3,14,09,65,318,40,10,70,346,38,11,75,014,37,12,20,042,39*7D
$GPGSV,4,4,14,13,25,070,41,14,30,098,36,,,,,,,,*79
$GPRMC,100107.00,A,3958.9158,N,11620.6825,E,1.9,305.28,010526,,,A*62
$GPGGA,100107.00,3958.9158,N,11620.6825,E,1,12,0.9,52.3,M,0.0,M,,*6A
$GPGSA,A,3,01,02,03,04,05,06,07,08,09,10,11,12,1.6,0.9,1.3*3D
$GPGSV,4,1,14,01,25,095,38,02,30,123,40,03,35,151,37,04,40,179,41*73
$GPGSV,4,2,14,05,45,207,39,06,50,235,36,07,55,263,42,08,60,291,35*77
$GPGSV,4,3,14,09,65,319,40,10,70,347,38,11,75,015,37,12,20,043,39*7D
$GPGSV,4,4,14,13,25,071,41,14,30,099,36,,,,,,,,*79
$GPRMC,100108.00,A,3958.9160,N,11620.6822,E,1.9,305.29,010526,,,A*60
$GPGGA,100108.00,3958.9160,N,11620.6822,E,1,12,0.9,52.3,M,0.0,M,,*69
$GPGSA,A,3,01,02,03,04,05,06,07,08,09,10,11,12,1.6,0.9,1.3*3D
$GPGSV,4,1,14,01,25,096,38,02,30,124,40,03,35,152,37,04,40,180,41*72
$GPGSV,4,2,14,05,45,208,39,06,50,236,36,07,55,264,42,08,60,292,35*7F
$GPGSV,4,3,14,09,65,320,40,10,70,348,38,11,75,016,37,12,20,044,39*7C
$GPGSV,4,4,14,13,25,072,41,14,30,100,36,,,,,,,,*7B
$GPRMC,100109.00,A,3958.9162,N,11620.6818,E,1.9,305.28,010526,,,A*6B
$GPGGA,100109.00,3958.9162,N,11620.6818,E,1,12,0.9,52.3,M,0.0,M,,*63
$GPGSA,A,3,01,02,03,04,05,06,07,08,09,10,11,12,1.6,0.9,1.3*3D
$GPGSV,4,1,14,01,25,097,38,02,30,125,40,03,35,153,37,04,40,181,41*72
$GPGSV,4,2,14,05,45,209,39,06,50,237,36,07,55,265,42,08,60,293,35*7F
$GPGSV,4,3,14,09,65,321,40,10,70,349,38,11,75,017,37,12,20,045,39*7C
$GPGSV,4,4,14,13,25,073,41,14,30,101,36,,,,,,,,*7B
$GPRMC,100110.00,A,3958.9164,N,11620.6815,E,1.9,305.25,010526,,,A*65
$GPGGA,100110.00,3958.9164,N,11620.6815,E,1,12,0.9,52.3,M,0.0,M,,*60
$GPGSA,A,3,01,02,03,04,05,06,07,08,09,10,11,12,1.6,0.9,1.3*3D
$GPGSV,4,1,14,01,25,098,38,02,30,126,40,03,35,154,37,04,40,182,41*7A
$GPGSV,4,2,14,05,45,210,39,06,50,238,36,07,55,266,42,08,60,294,35*7C
$GPGSV,4,3,14,09,65,322,40,10,70,350,38,11,75,018,37,12,20,046,39*7B
$GPGSV,4,4,14,13,25,074,41,14,30,102,36,,,,,,,,*7F
$GPRMC,100111.00,A,3958.9166,N,11620.6811,E,1.9,305.20,010526,,,A*67
$GPGGA,100111.00,3958.9166,N,11620.6811,E,1,12,0.9,52.3,M,0.0,M,,*67
$GPGSA,A,3,01,02,03,04,05,06,07,08,09,10,11,12,1.6,0.9,1.3*3D
$GPGSV,4,1,14,01,25,099,38,02,30,127,40,03,35,155,37,04,40,183,41*7A
$GPGSV,4,2,14,05,45,211,39,06,50,239,36,07,55,267,42,08,60,295,35*7C
$GPGSV,4,3,14,09,65,323,40,10,70,351,38,11,75,019,37,12,20,047,39*7B
$GPGSV,4,4,14,13,25,075,41,14,30,103,36,,,,,,,,*7F
$GPRMC,100112.00,A,3958.9168,N,11620.6808,E,1.9,305.14,010526,,,A*65
$GPGGA,100112.00,3958.9168,N,11620.6808,E,1,12,0.9,52.3,M,0.0,M,,*62
$GPGSA,A,3,01,02,03,04,05,06,07,08,09,10,11,12,1.6,0.9,1.3*3D
$GPGSV,4,1,14,01,25,100,38,02,30,128,40,03,35,156,37,04,40,184,41*70
$GPGSV,4,2,14,05,45,212,39,06,50,240,36,07,55,268,42,08,60,296,35*7D
$GPGSV,4,3,14,09,65,324,40,10,70,352,38,11,75,020,37,12,20,048,39*7A
$GPGSV,4,4,14,13,25,076,41,14,30,104,36,,,,,,,,*7B
$GPRMC,100113.00,A,3958.9170,N,11620.6804,E,1.9,305.06,010526,,,A*62
$GPGGA,100113.00,3958.9170,N,11620.6804,E,1,12,0.9,52.3,M,0.0,M,,*66
$GPGSA,A,3,01,02,03,04,05,06,07,08,09,10,11,12,1.6,0.9,1.3*3D
$GPGSV,4,1,14,01,25,101,38,02,30,129,40,03,35,157,37,04,40,185,41*70
$GPGSV,4,2,14,05,45,213,39,06,50,241,36,07,55,269,42,08,60,297,35*7D
$GPGSV,4,3,14,09,65,325,40,10,70,353,38,11,75,021,37,12,20,049,39*7A
$GPGSV,4,4,14,13,25,077,41,14,30,105,36,,,,,,,,*7B
$GPRMC,100114.00,A,3958.9172,N,11620.6801,E,1.9,304.97,010526,,,A*6B
$GPGGA,100114.00,3958.9172,N,11620.6801,E,1,12,0.9,52.2,M,0.0,M,,*67
$GPGSA,A,3,01,02,03,04,05,06,07,08,09,10,11,12,1.6,0.9,1.3*3D
$GPGSV,4,1,14,01,25,102,38,02,30,130,40,03,35,158,37,04,40,186,41*77
$GPGSV,4,2,14,05,45,214,39,06,50,242,36,07,55,270,42,08,60,298,35*7E
$GPGSV,4,3,14,09,65,326,40,10,70,354,38,11,75,022,37,12,20,050,39*75
$GPGSV,4,4,14,13,25,078,41,14,30,106,36,,,,,,,,*77
$GPRMC,100115.00,A,3958.9174,N,11620.6797,E,1.9,304.87,010526,,,A*6D
$GPGGA,100115.00,3958.9174,N,11620.6797,E,1,12,0.9,52.2,M,0.0,M,,*60
$GPGSA,A,3,01,02,03,04,05,06,07,08,09,10,11,12,1.6,0.9,1.3*3D
$GPGSV,4,1,14,01,25,103,38,02,30,131,40,03,35,159,37,04,40,187,41*77
$GPGSV,4,2,14,05,45,215,39,06,50,243,36,07,55,271,42,08,60,299,35*7E
$GPGSV,4,3,14,09,65,327,40,10,70,355,38,11,75,023,37,12,20,051,39*75
$GPGSV,4,4,14,13,25,079,41,14,30,107,36,,,,,,,,*77
$GPRMC,100116.00,A,3958.9176,N,11620.6793,E,1.9,304.75,010526,,,A*65
$GPGGA,100116.00,3958.9176,N,11620.6793,E,1,06,2.8,52.2,M,0.0,M,,*63
$GPGSA,A,3,01,02,03,04,05,06,,,,,,,3.5,2.8,3.2*38
$GPGSV,2,1,08,01,25,104,23,02,30,132,25,03,35,160,21,04,40,188,22*76
$GPGSV,2,2,08,05,45,216,24,06,50,244,20,07,55,272,26,08,60,300,22*7C
$GPRMC,100117.00,A,3958.9177,N,11620.6790,E,1.9,304.62,010526,,,A*60
$GPGGA,100117.00,3958.9177,N,11620.6790,E,1,06,2.9,52.2,M,0.0,M,,*61
$GPGSA,A,3,01,02,03,04,05,06,,,,,,,3.6,2.9,3.3*3B
$GPGSV,2,1,08,01,25,105,23,02,30,133,25,03,35,161,21,04,40,189,22*76
$GPGSV,2,2,08,05,45,217,24,06,50,245,20,07,55,273,26,08,60,301,22*7C
$GPRMC,100118.00,A,3958.9179,N,11620.6786,E,1.9,304.48,010526,,,A*6E
$GPGGA,100118.00,3958.9179,N,11620.6786,E,1,06,3.0,52.2,M,0.0,M,,*6F
$GPGSA,A,3,01,02,03,04,05,06,,,,,,,3.7,3.0,3.4*35
$GPGSV,2,1,08,01,25,106,23,02,30,134,25,03,35,162,21,04,40,190,22*79
$GPGSV,2,2,08,05,45,218,24,06,50,246,20,07,55,274,26,08,60,302,22*74
$GPRMC,100119.00,A,3958.9181,N,11620.6783,E,1.9,304.32,010526,,,A*60
$GPGGA,100119.00,3958.9181,N,11620.6783,E,1,06,3.1,52.2,M,0.0,M,,*6D
$GPGSA,A,3,01,02,03,04,05,06,,,,,,,3.8,3.1,3.5*3A
$GPGSV,2,1,08,01,25,107,23,02,30,135,25,03,35,163,21,04,40,191,22*79
$GPGSV,2,2,08,05,45,219,24,06,50,247,20,07,55,275,26,08,60,303,22*74
$GPRMC,100120.00,A,3958.9183,N,11620.6779,E,1.9,304.16,010526,,,A*6B
$GPGGA,100120.00,3958.9183,N,11620.6779,E,1,06,3.1,52.2,M,0.0,M,,*60
$GPGSA,A,3,01,02,03,04,05,06,,,,,,,3.8,3.1,3.5*3A
$GPGSV,2,1,08,01,25,108,23,02,30,136,25,03,35,164,21,04,40,192,22*71
$GPGSV,2,2,08,05,45,220,24,06,50,248,20,07,55,276,26,08,60,304,22*75
$GPRMC,100121.00,A,3958.9185,N,11620.6776,E,1.9,303.99,010526,,,A*63
$GPGGA,100121.00,3958.9185,N,11620.6776,E,1,06,3.1,52.2,M,0.0,M,,*68
$GPGSA,A,3,01,02,03,04,05,06,,,,,,,3.8,3.1,3.5*3A
$GPGSV,2,1,08,01,25,109,23,02,30,137,25,03,35,165,21,04,40,193,22*71
$GPGSV,2,2,08,05,45,221,24,06,50,249,20,07,55,277,26,08,60,305,22*75
$GPRMC,100122.00,A,3958.9187,N,11620.6772,E,1.9,303.81,010526,,,A*6F
$GPGGA,100122.00,3958.9187,N,11620.6772,E,1,06,3.0,52.2,M,0.0,M,,*6C
$GPGSA,A,3,01,02,03,04,05,06,,,,,,,3.7,3.0,3.4*35
$GPGSV,2,1,08,01,25,110,23,02,30,138,25,03,35,166,21,04,40,194,22*72
$GPGSV,2,2,08,05,45,222,24,06,50,250,20,07,55,278,26,08,60,306,22*72
$GPRMC,100123.00,A,3958.9189,N,11620.6768,E,1.9,303.63,010526,,,A*67
$GPGGA,100123.00,3958.9189,N,11620.6768,E,1,06,2.9,52.1,M,0.0,M,,*63
$GPGSA,A,3,01,02,03,04,05,06,,,,,,,3.6,2.9,3.3*3B
$GPGSV,2,1,08,01,25,111,23,02,30,139,25,03,35,167,21,04,40,195,22*72
$GPGSV,2,2,08,05,45,223,24,06,50,251,20,07,55,279,26,08,60,307,22*72
$GPRMC,100124.00,A,3958.9190,N,11620.6765,E,1.9,303.44,010526,,,A*60
$GPGGA,100124.00,3958.9190,N,11620.6765,E,1,06,2.8,52.1,M,0.0,M,,*60
$GPGSA,A,3,01,02,03,04,05,06,,,,,,,3.5,2.8,3.2*38
$GPGSV,2,1,08,01,25,112,23,02,30,140,25,03,35,168,21,04,40,196,22*73
$GPGSV,2,2,08,05,45,224,24,06,50,252,20,07,55,280,26,08,60,308,22*7F
$GPRMC,100125.00,A,3958.9192,N,11620.6761,E,1.9,303.25,010526,,,A*60
$GPGGA,100125.00,3958.9192,N,11620.6761,E,1,06,2.7,52.1,M,0.0,M,,*68
$GPGSA,A,3,01,02,03,04,05,06,,,,,,,3.4,2.7,3.1*35
$GPGSV,2,1,08,01,25,113,23,02,30,141,25,03,35,169,21,04,40,197,22*73
$GPGSV,2,2,08,05,45,225,24,06,50,253,20,07,55,281,26,08,60,309,22*7F
$GPRMC,100126.00,A,3958.9194,N,11620.6758,E,1.9,303.06,010526,,,A*6E
$GPGGA,100126.00,3958.9194,N,11620.6758,E,1,06,2.5,52.1,M,0.0,M,,*65
$GPGSA,A,3,01,02,03,04,05,06,,,,,,,3.2,2.5,2.9*38
$GPGSV,2,1,08,01,25,114,23,02,30,142,25,03,35,170,21,04,40,198,22*70
$GPGSV,2,2,08,05,45,226,24,06,50,254,20,07,55,282,26,08,60,310,22*70
$GPRMC,100127.00,A,3958.9196,N,11620.6754,E,1.9,302.87,010526,,,A*69
$GPGGA,100127.00,3958.9196,N,11620.6754,E,1,06,2.4,52.1,M,0.0,M,,*6B
$GPGSA,A,3,01,02,03,04,05,06,,,,,,,3.1,2.4,2.8*3B
$GPGSV,2,1,08,01,25,115,23,02,30,143,25,03,35,171,21,04,40,199,22*70
$GPGSV,2,2,08,05,45,227,24,06,50,255,20,07,55,283,26,08,60,311,22*70
$GPRMC,100128.00,A,3958.9198,N,11620.6750,E,1.9,302.68,010526,,,A*6D
$GPGGA,100128.00,3958.9198,N,11620.6750,E,1,06,2.4,52.1,M,0.0,M,,*6E
$GPGSA,A,3,01,02,03,04,05,06,,,,,,,3.1,2.4,2.8*3B
$GPGSV,2,1,08,01,25,116,23,02,30,144,25,03,35,172,21,04,40,200,22*74
$GPGSV,2,2,08,05,45,228,24,06,50,256,20,07,55,284,26,08,60,312,22*78
$GPRMC,100129.00,A,3958.9199,N,11620.6747,E,1.9,302.49,010526,,,A*68
$GPGGA,100129.00,3958.9199,N,11620.6747,E,1,06,2.3,52.1,M,0.0,M,,*6F
$GPGSA,A,3,01,02,03,04,05,06,,,,,,,3.0,2.3,2.7*32
$GPGSV,2,1,08,01,25,117,23,02,30,145,25,03,35,173,21,04,40,201,22*74
$GPGSV,2,2,08,05,45,229,24,06,50,257,20,07,55,285,26,08,60,313,22*78
$GPRMC,100130.00,A,3958.9201,N,11620.6743,E,1.9,302.31,010526,,,A*69
$GPGGA,100130.00,3958.9201,N,11620.6743,E,1,06,2.3,52.1,M,0.0,M,,*61
$GPGSA,A,3,01,02,03,04,05,06,,,,,,,3.0,2.3,2.7*32
$GPGSV,2,1,08,01,25,118,23,02,30,146,25,03,35,174,21,04,40,202,22*7C
$GPGSV,2,2,08,05,45,230,24,06,50,258,20,07,55,286,26,08,60,314,22*7B
$GPRMC,100131.00,A,3958.9203,N,11620.6739,E,1.9,302.13,010526,,,A*67
$GPGGA,100131.00,3958.9203,N,11620.6739,E,1,06,2.3,52.0,M,0.0,M,,*6E
$GPGSA,A,3,01,02,03,04,05,06,,,,,,,3.0,2.3,2.7*32
$GPGSV,2,1,08,01,25,119,23,02,30,147,25,03,35,175,21,04,40,203,22*7C
$GPGSV,2,2,08,05,45,231,24,06,50,259,20,07,55,287,26,08,60,315,22*7B
$GPRMC,100132.00,A,3958.9205,N,11620.6736,E,1.9,301.96,010526,,,A*63
$GPGGA,100132.00,3958.9205,N,11620.6736,E,1,06,2.4,52.0,M,0.0,M,,*63
$GPGSA,A,3,01,02,03,04,05,06,,,,,,,3.1,2.4,2.8*3B
$GPGSV,2,1,08,01,25,120,23,02,30,148,25,03,35,176,21,04,40,204,22*7D
$GPGSV,2,2,08,05,45,232,24,06,50,260,20,07,55,288,26,08,60,316,22*7E
$GPRMC,100133.00,A,3958.9206,N,11620.6732,E,1.9,301.80,010526,,,A*62
$GPGGA,100133.00,3958.9206,N,11620.6732,E,1,06,2.5,52.0,M,0.0,M,,*64
$GPGSA,A,3,01,02,03,04,05,06,,,,,,,3.2,2.5,2.9*38
$GPGSV,2,1,08,01,25,121,23,02,30,149,25,03,35,177,21,04,40,205,22*7D
$GPGSV,2,2,08,05,45,233,24,06,50,261,20,07,55,289,26,08,60,317,22*7E
$GPRMC,100134.00,A,3958.9208,N,11620.6728,E,1.9,301.64,010526,,,A*6A
$GPGGA,100134.00,3958.9208,N,11620.6728,E,1,06,2.7,52.0,M,0.0,M,,*64
$GPGSA,A,3,01,02,03,04,05,06,,,,,,,3.4,2.7,3.1*35
$GPGSV,2,1,08,01,25,122,23,02,30,150,25,03,35,178,21,04,40,206,22*7A
$GPGSV,2,2,08,05,45,234,24,06,50,262,20,07,55,290,26,08,60,318,22*7D
$GPRMC,100135.00,A,3958.9210,N,11620.6725,E,1.9,301.50,010526,,,A*68
$GPGGA,100135.00,3958.9210,N,11620.6725,E,1,06,2.8,52.0,M,0.0,M,,*6E
$GPGSA,A,3,01,02,03,04,05,06,,,,,,,3.5,2.8,3.2*38
$GPGSV,2,1,08,01,25,123,23,02,30,151,25,03,35,179,21,04,40,207,22*7A
$GPGSV,2,2,08,05,45,235,24,06,50,263,20,07,55,291,26,08,60,319,22*7D
$GPRMC,100136.00,A,3958.9212,N,11620.6721,E,1.9,301.37,010526,,,A*6C
$GPGGA,100136.00,3958.9212,N,11620.6721,E,1,06,2.9,52.0,M,0.0,M,,*6A
$GPGSA,A,3,01,02,03,04,05,06,,,,,,,3.6,2.9,3.3*3B
$GPGSV,2,1,08,01,25,124,23,02,30,152,25,03,35,180,21,04,40,208,22*77
$GPGSV,2,2,08,05,45,236,24,06,50,264,20,07,55,292,26,08,60,320,22*70
$GPRMC,100137.00,A,3958.9213,N,11620.6717,E,1.9,301.26,010526,,,A*69
$GPGGA,100137.00,3958.9213,N,11620.6717,E,1,06,3.0,52.0,M,0.0,M,,*67
$GPGSA,A,3,01,02,03,04,05,06,,,,,,,3.7,3.0,3.4*35
$GPGSV,2,1,08,01,25,125,23,02,30,153,25,03,35,181,21,04,40,209,22*77
$GPGSV,2,2,08,05,45,237,24,06,50,265,20,07,55,293,26,08,60,321,22*70
$GPRMC,100138.00,A,3958.9215,N,11620.6714,E,1.9,301.15,010526,,,A*63
$GPGGA,100138.00,3958.9215,N,11620.6714,E,1,06,3.1,52.0,M,0.0,M,,*6C
$GPGSA,A,3,01,02,03,04,05,06,,,,,,,3.8,3.1,3.5*3A
$GPGSV,2,1,08,01,25,126,23,02,30,154,25,03,35,182,21,04,40,210,22*78
$GPGSV,2,2,08,05,45,238,24,06,50,266,20,07,55,294,26,08,60,322,22*78
$GPRMC,100139.00,A,3958.9217,N,11620.6710,E,1.9,301.07,010526,,,A*67
$GPGGA,100139.00,3958.9217,N,11620.6710,E,1,06,3.1,51.9,M,0.0,M,,*61
$GPGSA,A,3,01,02,03,04,05,06,,,,,,,3.8,3.1,3.5*3A
$GPGSV,2,1,08,01,25,127,23,02,30,155,25,03,35,183,21,04,40,211,22*78
$GPGSV,2,2,08,05,45,239,24,06,50,267,20,07,55,295,26,08,60,323,22*78
$GPRMC,100140.00,A,3958.9218,N,11620.6706,E,1.9,300.99,010526,,,A*67
$GPGGA,100140.00,3958.9218,N,11620.6706,E,1,06,3.1,51.9,M,0.0,M,,*67
$GPGSA,A,3,01,02,03,04,05,06,,,,,,,3.8,3.1,3.5*3A
$GPGSV,2,1,08,01,25,128,23,02,30,156,25,03,35,184,21,04,40,212,22*70
$GPGSV,2,2,08,05,45,240,24,06,50,268,20,07,55,296,26,08,60,324,22*7D
$GPRMC,100141.00,A,3958.9220,N,11620.6703,E,1.9,300.94,010526,,,A*65
$GPGGA,100141.00,3958.9220,N,11620.6703,E,1,06,3.0,51.9,M,0.0,M,,*69
$GPGSA,A,3,01,02,03,04,05,06,,,,,,,3.7,3.0,3.4*35
$GPGSV,2,1,08,01,25,129,23,02,30,157,25,03,35,185,21,04,40,213,22*70
$GPGSV,2,2,08,05,45,241,24,06,50,269,20,07,55,297,26,08,60,325,22*7D
$GPRMC,100142.00,A,3958.9222,N,11620.6699,E,1.9,300.90,010526,,,A*62
$GPGGA,100142.00,3958.9222,N,11620.6699,E,1,06,2.9,51.9,M,0.0,M,,*62
$GPGSA,A,3,01,02,03,04,05,06,,,,,,,3.6,2.9,3.3*3B
$GPGSV,2,1,08,01,25,130,23,02,30,158,25,03,35,186,21,04,40,214,22*73
$GPGSV,2,2,08,05,45,242,24,06,50,270,20,07,55,298,26,08,60,326,22*7A
$GPRMC,100143.00,A,3958.9223,N,11620.6695,E,1.9,300.88,010526,,,A*67
$GPGGA,100143.00,3958.9223,N,11620.6695,E,1,06,2.8,51.9,M,0.0,M,,*6F
$GPGSA,A,3,01,02,03,04,05,06,,,,,,,3.5,2.8,3.2*38
$GPGSV,2,1,08,01,25,131,23,02,30,159,25,03,35,187,21,04,40,215,22*73
$GPGSV,2,2,08,05,45,243,24,06,50,271,20,07,55,299,26,08,60,327,22*7A
$GPRMC,100144.00,A,3958.9225,N,11620.6691,E,1.9,300.87,010526,,,A*6D
$GPGGA,100144.00,3958.9225,N,11620.6691,E,1,06,2.7,51.9,M,0.0,M,,*65
$GPGSA,A,3,01,02,03,04,05,06,,,,,,,3.4,2.7,3.1*35
$GPGSV,2,1,08,01,25,132,23,02,30,160,25,03,35,188,21,04,40,216,22*76
$GPGSV,2,2,08,05,45,244,24,06,50,272,20,07,55,300,26,08,60,328,22*70
$GPRMC,100145.00,A,3958.9227,N,11620.6688,E,1.9,300.88,010526,,,A*69
$GPGGA,100145.00,3958.9227,N,11620.6688,E,1,06,2.5,51.9,M,0.0,M,,*6C
$GPGSA,A,3,01,02,03,04,05,06,,,,,,,3.2,2.5,2.9*38
$GPGSV,2,1,08,01,25,133,23,02,30,161,25,03,35,189,21,04,40,217,22*76
$GPGSV,2,2,08,05,45,245,24,06,50,273,20,07,55,301,26,08,60,329,22*70
$GPRMC,100146.00,A,3958.9229,N,11620.6684,E,1.9,300.91,010526,,,A*60
$GPGGA,100146.00,3958.9229,N,11620.6684,E,1,06,2.4,51.8,M,0.0,M,,*6D
$GPGSA,A,3,01,02,03,04,05,06,,,,,,,3.1,2.4,2.8*3B
$GPGSV,2,1,08,01,25,134,23,02,30,162,25,03,35,190,21,04,40,218,22*75
$GPGSV,2,2,08,05,45,246,24,06,50,274,20,07,55,302,26,08,60,330,22*7F
$GPRMC,100147.00,A,3958.9230,N,11620.6680,E,1.9,300.96,010526,,,A*6A
$GPGGA,100147.00,3958.9230,N,11620.6680,E,1,06,2.3,51.8,M,0.0,M,,*67
$GPGSA,A,3,01,02,03,04,05,06,,,,,,,3.0,2.3,2.7*32
$GPGSV,2,1,08,01,25,135,23,02,30,163,25,03,35,191,21,04,40,219,22*75
$GPGSV,2,2,08,05,45,247,24,06,50,275,20,07,55,303,26,08,60,331,22*7F
$GPRMC,100148.00,A,3958.9232,N,11620.6677,E,1.9,301.02,010526,,,A*63
$GPGGA,100148.00,3958.9232,N,11620.6677,E,1,06,2.3,51.8,M,0.0,M,,*62
$GPGSA,A,3,01,02,03,04,05,06,,,,,,,3.0,2.3,2.7*32
$GPGSV,2,1,08,01,25,136,23,02,30,164,25,03,35,192,21,04,40,220,22*78
$GPGSV,2,2,08,05,45,248,24,06,50,276,20,07,55,304,26,08,60,332,22*77
$GPRMC,100149.00,A,3958.9234,N,11620.6673,E,1.9,301.09,010526,,,A*6B
$GPGGA,100149.00,3958.9234,N,11620.6673,E,1,12,0.8,51.8,M,0.0,M,,*6D
$GPGSA,A,3,01,02,03,04,05,06,07,08,09,10,11,12,1.5,0.8,1.2*3E
$GPGSV,4,1,14,01,25,137,38,02,30,165,40,03,35,193,37,04,40,221,41*78
$GPGSV,4,2,14,05,45,249,39,06,50,277,36,07,55,305,42,08,60,333,35*73
$GPGSV,4,3,14,09,65,001,40,10,70,029,38,11,75,057,37,12,20,085,39*70
$GPGSV,4,4,14,13,25,113,41,14,30,141,36,,,,,,,,*78
$GPRMC,100150.00,A,3958.9235,N,11620.6669,E,1.9,301.19,010526,,,A*68
$GPGGA,100150.00,3958.9235,N,11620.6669,E,1,12,0.8,51.8,M,0.0,M,,*6F
$GPGSA,A,3,01,02,03,04,05,06,07,08,09,10,11,12,1.5,0.8,1.2*3E
$GPGSV,4,1,14,01,25,138,38,02,30,166,40,03,35,194,37,04,40,222,41*70
$GPGSV,4,2,14,05,45,250,39,06,50,278,36,07,55,306,42,08,60,334,35*70
$GPGSV,4,3,14,09,65,002,40,10,70,030,38,11,75,058,37,12,20,086,39*77
$GPGSV,4,4,14,13,25,114,41,14,30,142,36,,,,,,,,*7C
$GPRMC,100151.00,A,3958.9237,N,11620.6666,E,1.9,301.30,010526,,,A*6F
$GPGGA,100151.00,3958.9237,N,11620.6666,E,1,12,0.8,51.8,M,0.0,M,,*63
$GPGSA,A,3,01,02,03,04,05,06,07,08,09,10,11,12,1.5,0.8,1.2*3E
$GPGSV,4,1,14,01,25,139,38,02,30,167,40,03,35,195,37,04,40,223,41*70
$GPGSV,4,2,14,05,45,251,39,06,50,279,36,07,55,307,42,08,60,335,35*70
$GPGSV,4,3,14,09,65,003,40,10,70,031,38,11,75,059,37,12,20,087,39*77
$GPGSV,4,4,14,13,25,115,41,14,30,143,36,,,,,,,,*7C
$GPRMC,100152.00,A,3958.9239,N,11620.6662,E,1.9,301.42,010526,,,A*63
$GPGGA,100152.00,3958.9239,N,11620.6662,E,1,12,0.8,51.8,M,0.0,M,,*6A
$GPGSA,A,3,01,02,03,04,05,06,07,08,09,10,11,12,1.5,0.8,1.2*3E
$GPGSV,4,1,14,01,25,140,38,02,30,168,40,03,35,196,37,04,40,224,41*75
$GPGSV,4,2,14,05,45,252,39,06,50,280,36,07,55,308,42,08,60,336,35*79
$GPGSV,4,3,14,09,65,004,40,10,70,032,38,11,75,060,37,12,20,088,39*76
$GPGSV,4,4,14,13,25,116,41,14,30,144,36,,,,,,,,*78
$GPRMC,100153.00,A,3958.9241,N,11620.6658,E,2.0,301.55,010526,,,A*68
$GPGGA,100153.00,3958.9241,N,11620.6658,E,1,12,0.8,51.8,M,0.0,M,,*6D
$GPGSA,A,3,01,02,03,04,05,06,07,08,09,10,11,12,1.5,0.8,1.2*3E
$GPGSV,4,1,14,01,25,141,38,02,30,169,40,03,35,197,37,04,40,225,41*75
$GPGSV,4,2,14,05,45,253,39,06,50,281,36,07,55,309,42,08,60,337,35*79
$GPGSV,4,3,14,09,65,005,40,10,70,033,38,11,75,061,37,12,20,089,39*76
$GPGSV,4,4,14,13,25,117,41,14,30,145,36,,,,,,,,*78
$GPRMC,100154.00,A,3958.9242,N,11620.6655,E,2.0,301.70,010526,,,A*66
$GPGGA,100154.00,3958.9242,N,11620.6655,E,1,12,0.8,51.8,M,0.0,M,,*64
$GPGSA,A,3,01,02,03,04,05,06,07,08,09,10,11,12,1.5,0.8,1.2*3E
$GPGSV,4,1,14,01,25,142,38,02,30,170,40,03,35,198,37,04,40,226,41*72
$GPGSV,4,2,14,05,45,254,39,06,50,282,36,07,55,310,42,08,60,338,35*7A
$GPGSV,4,3,14,09,65,006,40,10,70,034,38,11,75,062,37,12,20,090,39*79
$GPGSV,4,4,14,13,25,118,41,14,30,146,36,,,,,,,,*74
$GPRMC,100155.00,A,3958.9244,N,11620.6651,E,2.0,301.86,010526,,,A*6C
$GPGGA,100155.00,3958.9244,N,11620.6651,E,1,12,0.8,51.7,M,0.0,M,,*68
$GPGSA,A,3,01,02,03,04,05,06,07,08,09,10,11,12,1.5,0.8,1.2*3E
$GPGSV,4,1,14,01,25,143,38,02,30,171,40,03,35,199,37,04,40,227,41*72
$GPGSV,4,2,14,05,45,255,39,06,50,283,36,07,55,311,42,08,60,339,35*7A
$GPGSV,4,3,14,09,65,007,40,10,70,035,38,11,75,063,37,12,20,091,39*79
$GPGSV,4,4,14,13,25,119,41,14,30,147,36,,,,,,,,*74
$GPRMC,100156.00,A,3958.9246,N,11620.6647,E,2.0,302.03,010526,,,A*64
$GPGGA,100156.00,3958.9246,N,11620.6647,E,1,12,0.8,51.7,M,0.0,M,,*6E
$GPGSA,A,3,01,02,03,04,05,06,07,08,09,10,11,12,1.5,0.8,1.2*3E
$GPGSV,4,1,14,01,25,144,38,02,30,172,40,03,35,200,37,04,40,228,41*7A
$GPGSV,4,2,14,05,45,256,39,06,50,284,36,07,55,312,42,08,60,340,35*73
$GPGSV,4,3,14,09,65,008,40,10,70,036,38,11,75,064,37,12,20,092,39*71
$GPGSV,4,4,14,13,25,120,41,14,30,148,36,,,,,,,,*71
$GPRMC,100157.00,A,3958.9247,N,11620.6644,E,2.0,302.20,010526,,,A*66
$GPGGA,100157.00,3958.9247,N,11620.6644,E,1,12,0.8,51.7,M,0.0,M,,*6D
$GPGSA,A,3,01,02,03,04,05,06,07,08,09,10,11,12,1.5,0.8,1.2*3E
$GPGSV,4,1,14,01,25,145,38,02,30,173,40,03,35,201,37,04,40,229,41*7A
$GPGSV,4,2,14,05,45,257,39,06,50,285,36,07,55,313,42,08,60,341,35*73
$GPGSV,4,3,14,09,65,009,40,10,70,037,38,11,75,065,37,12,20,093,39*71
$GPGSV,4,4,14,13,25,121,41,14,30,149,36,,,,,,,,*71
$GPRMC,100158.00,A,3958.9249,N,11620.6640,E,2.0,302.38,010526,,,A*6A
$GPGGA,100158.00,3958.9249,N,11620.6640,E,1,12,0.8,51.7,M,0.0,M,,*68
$GPGSA,A,3,01,02,03,04,05,06,07,08,09,10,11,12,1.5,0.8,1.2*3E
$GPGSV,4,1,14,01,25,146,38,02,30,174,40,03,35,202,37,04,40,230,41*75
$GPGSV,4,2,14,05,45,258,39,06,50,286,36,07,55,314,42,08,60,342,35*7B
$GPGSV,4,3,14,09,65,010,40,10,70,038,38,11,75,066,37,12,20,094,39*72
$GPGSV,4,4,14,13,25,122,41,14,30,150,36,,,,,,,,*7A
$GPRMC,100159.00,A,3958.9251,N,11620.6636,E,2.0,302.57,010526,,,A*6A
$GPGGA,100159.00,3958.9251,N,11620.6636,E,1,12,0.8,51.7,M,0.0,M,,*61
$GPGSA,A,3,01,02,03,04,05,06,07,08,09,10,11,12,1.5,0.8,1.2*3E
$GPGSV,4,1,14,01,25,147,38,02,30,175,40,03,35,203,37,04,40,231,41*75
$GPGSV,4,2,14,05,45,259,39,06,50,287,36,07,55,315,42,08,60,343,35*7B
$GPGSV,4,3,14,09,65,011,40,10,70,039,38,11,75,067,37,12,20,095,39*72
$GPGSV,4,4,14,13,25,123,41,14,30,151,36,,,,,,,,*7A
$GPRMC,100200.00,A,3958.9253,N,11620.6633,E,2.0,302.76,010526,,,A*61
$GPGGA,100200.00,3958.9253,N,11620.6633,E,1,12,0.9,51.7,M,0.0,M,,*68
$GPGSA,A,3,01,02,03,04,05,06,07,08,09,10,11,12,1.6,0.9,1.3*3D
$GPGSV,4,1,14,01,25,148,38,02,30,176,40,03,35,204,37,04,40,232,41*7D
$GPGSV,4,2,14,05,45,260,39,06,50,288,36,07,55,316,42,08,60,344,35*7A
$GPGSV,4,3,14,09,65,012,40,10,70,040,38,11,75,068,37,12,20,096,39*73
$GPGSV,4,4,14,13,25,124,41,14,30,152,36,,,,,,,,*7E
$GPRMC,100201.00,A,3958.9249,N,11620.6630,E,2.0,203.75,010526,,,A*6B
$GPGGA,100201.00,3958.9249,N,11620.6630,E,1,12,0.9,51.7,M,0.0,M,,*61
$GPGSA,A,3,01,02,03,04,05,06,07,08,09,10,11,12,1.6,0.9,1.3*3D
$GPGSV,4,1,14,01,25,149,38,02,30,177,40,03,35,205,37,04,40,233,41*7D
$GPGSV,4,2,14,05,45,261,39,06,50,289,36,07,55,317,42,08,60,345,35*7A
$GPGSV,4,3,14,09,65,013,40,10,70,041,38,11,75,069,37,12,20,097,39*73
$GPGSV,4,4,14,13,25,125,41,14,30,153,36,,,,,,,,*7E
$GPRMC,100202.00,A,3958.9244,N,11620.6628,E,2.0,203.74,010526,,,A*6D
$GPGGA,100202.00,3958.9244,N,11620.6628,E,1,12,0.9,51.7,M,0.0,M,,*66
$GPGSA,A,3,01,02,03,04,05,06,07,08,09,10,11,12,1.6,0.9,1.3*3D
$GPGSV,4,1,14,01,25,150,38,02,30,178,40,03,35,206,37,04,40,234,41*7E
$GPGSV,4,2,14,05,45,262,39,06,50,290,36,07,55,318,42,08,60,346,35*7D
$GPGSV,4,3,14,09,65,014,40,10,70,042,38,11,75,070,37,12,20,098,39*70
$GPGSV,4,4,14,13,25,126,41,14,30,154,36,,,,,,,,*7A
$GPRMC,100203.00,A,3958.9240,N,11620.6626,E,2.0,203.72,010526,,,A*60
$GPGGA,100203.00,3958.9240,N,11620.6626,E,1,12,0.9,51.7,M,0.0,M,,*6D
$GPGSA,A,3,01,02,03,04,05,06,07,08,09,10,11,12,1.6,0.9,1.3*3D
$GPGSV,4,1,14,01,25,151,38,02,30,179,40,03,35,207,37,04,40,235,41*7E
$GPGSV,4,2,14,05,45,263,39,06,50,291,36,07,55,319,42,08,60,347,35*7D
$GPGSV,4,3,14,09,65,015,40,10,70,043,38,11,75,071,37,12,20,099,39*70
$GPGSV,4,4,14,13,25,127,41,14,30,155,36,,,,,,,,*7A
$GPRMC,100204.00,A,3958.9236,N,11620.6623,E,2.0,203.71,010526,,,A*60
$GPGGA,100204.00,3958.9236,N,11620.6623,E,1,12,0.9,51.7,M,0.0,M,,*6E
$GPGSA,A,3,01,02,03,04,05,06,07,08,09,10,11,12,1.6,0.9,1.3*3D
$GPGSV,4,1,14,01,25,152,38,02,30,180,40,03,35,208,37,04,40,236,41*77
$GPGSV,4,2,14,05,45,264,39,06,50,292,36,07,55,320,42,08,60,348,35*7C
$GPGSV,4,3,14,09,65,016,40,10,70,044,38,11,75,072,37,12,20,100,39*76
$GPGSV,4,4,14,13,25,128,41,14,30,156,36,,,,,,,,*76
$GPRMC,100205.00,A,3958.9232,N,11620.6621,E,2.0,203.70,010526,,,A*66
$GPGGA,100205.00,3958.9232,N,11620.6621,E,1,12,0.9,51.7,M,0.0,M,,*69
$GPGSA,A,3,01,02,03,04,05,06,07,08,09,10,11,12,1.6,0.9,1.3*3D
$GPGSV,4,1,14,01,25,153,38,02,30,181,40,03,35,209,37,04,40,237,41*77
$GPGSV,4,2,14,05,45,265,39,06,50,293,36,07,55,321,42,08,60,349,35*7C
$GPGSV,4,3,14,09,65,017,40,10,70,045,38,11,75,073,37,12,20,101,39*76
$GPGSV,4,4,14,13,25,129,41,14,30,157,36,,,,,,,,*76
$GPRMC,100206.00,A,3958.9228,N,11620.6618,E,2.1,203.68,010526,,,A*6C
$GPGGA,100206.00,3958.9228,N,11620.6618,E,1,12,0.9,51.7,M,0.0,M,,*6B
$GPGSA,A,3,01,02,03,04,05,06,07,08,09,10,11,12,1.6,0.9,1.3*3D
$GPGSV,4,1,14,01,25,154,38,02,30,182,40,03,35,210,37,04,40,238,41*74
$GPGSV,4,2,14,05,45,266,39,06,50,294,36,07,55,322,42,08,60,350,35*73
$GPGSV,4,3,14,09,65,018,40,10,70,046,38,11,75,074,37,12,20,102,39*7E
$GPGSV,4,4,14,13,25,130,41,14,30,158,36,,,,,,,,*71
$GPRMC,100207.00,A,3958.9224,N,11620.6616,E,2.1,203.67,010526,,,A*60
$GPGGA,100207.00,3958.9224,N,11620.6616,E,1,12,0.9,51.6,M,0.0,M,,*69
$GPGSA,A,3,01,02,03,04,05,06,07,08,09,10,11,12,1.6,0.9,1.3*3D
$GPGSV,4,1,14,01,25,155,38,02,30,183,40,03,35,211,37,04,40,239,41*74
$GPGSV,4,2,14,05,45,267,39,06,50,295,36,07,55,323,42,08,60,351,35*73
$GPGSV,4,3,14,09,65,019,40,10,70,047,38,11,75,075,37,12,20,103,39*7E
$GPGSV,4,4,14,13,25,131,41,14,30,159,36,,,,,,,,*71
$GPRMC,100208.00,A,3958.9219,N,11620.6614,E,2.1,203.65,010526,,,A*61
$GPGGA,100208.00,3958.9219,N,11620.6614,E,1,12,0.9,51.6,M,0.0,M,,*6A
$GPGSA,A,3,01,02,03,04,05,06,07,08,09,10,11,12,1.6,0.9,1.3*3D
$GPGSV,4,1,14,01,25,156,38,02,30,184,40,03,35,212,37,04,40,240,41*7D
$GPGSV,4,2,14,05,45,268,39,06,50,296,36,07,55,324,42,08,60,352,35*7B
$GPGSV,4,3,14,09,65,020,40,10,70,048,38,11,75,076,37,12,20,104,39*7F
$GPGSV,4,4,14,13,25,132,41,14,30,160,36,,,,,,,,*78
$GPRMC,100209.00,A,3958.9215,N,11620.6611,E,2.1,203.63,010526,,,A*6F
$GPGGA,100209.00,3958.9215,N,11620.6611,E,1,12,0.9,51.6,M,0.0,M,,*62
$GPGSA,A,3,01,02,03,04,05,06,07,08,09,10,11,12,1.6,0.9,1.3*3D
$GPGSV,4,1,14,01,25,157,38,02,30,185,40,03,35,213,37,04,40,241,41*7D
$GPGSV,4,2,14,05,45,269,39,06,50,297,36,07,55,325,42,08,60,353,35*7B
$GPGSV,4,3,14,09,65,021,40,10,70,049,38,11,75,077,37,12,20,105,39*7F
$GPGSV,4,4,14,13,25,133,41,14,30,161,36,,,,,,,,*78
$GPRMC,100210.00,A,3958.9211,N,11620.6609,E,2.1,203.62,010526,,,A*6B
$GPGGA,100210.00,3958.9211,N,11620.6609,E,1,12,0.9,51.6,M,0.0,M,,*67
$GPGSA,A,3,01,02,03,04,05,06,07,08,09,10,11,12,1.6,0.9,1.3*3D
$GPGSV,4,1,14,01,25,158,38,02,30,186,40,03,35,214,37,04,40,242,41*75
$GPGSV,4,2,14,05,45,270,39,06,50,298,36,07,55,326,42,08,60,354,35*78
$GPGSV,4,3,14,09,65,022,40,10,70,050,38,11,75,078,37,12,20,106,39*78
$GPGSV,4,4,14,13,25,134,41,14,30,162,36,,,,,,,,*7C
$GPRMC,100211.00,A,3958.9207,N,11620.6607,E,2.1,203.60,010526,,,A*61
$GPGGA,100211.00,3958.9207,N,11620.6607,E,1,12,0.9,51.6,M,0.0,M,,*6F
$GPGSA,A,3,01,02,03,04,05,06,07,08,09,10,11,12,1.6,0.9,1.3*3D
$GPGSV,4,1,14,01,25,159,38,02,30,187,40,03,35,215,37,04,40,243,41*75
$GPGSV,4,2,14,05,45,271,39,06,50,299,36,07,55,327,42,08,60,355,35*78
$GPGSV,4,3,14,09,65,023,40,10,70,051,38,11,75,079,37,12,20,107,39*78
$GPGSV,4,4,14,13,25,135,41,14,30,163,36,,,,,,,,*7C
$GPRMC,100212.00,A,3958.9203,N,11620.6604,E,2.1,203.58,010526,,,A*6E
$GPGGA,100212.00,3958.9203,N,11620.6604,E,1,12,0.9,51.6,M,0.0,M,,*6B
$GPGSA,A,3,01,02,03,04,05,06,07,08,09,10,11,12,1.6,0.9,1.3*3D
$GPGSV,4,1,14,01,25,160,38,02,30,188,40,03,35,216,37,04,40,244,41*74
$GPGSV,4,2,14,05,45,272,39,06,50,300,36,07,55,328,42,08,60,356,35*76
$GPGSV,4,3,14,09,65,024,40,10,70,052,38,11,75,080,37,12,20,108,39*75
$GPGSV,4,4,14,13,25,136,41,14,30,164,36,,,,,,,,*78
$GPRMC,100213.00,A,3958.9199,N,11620.6602,E,2.1,203.56,010526,,,A*67
$GPGGA,100213.00,3958.9199,N,11620.6602,E,1,12,0.9,51.6,M,0.0,M,,*6C
$GPGSA,A,3,01,02,03,04,05,06,07,08,09,10,11,12,1.6,0.9,1.3*3D
$GPGSV,4,1,14,01,25,161,38,02,30,189,40,03,35,217,37,04,40,245,41*74
$GPGSV,4,2,14,05,45,273,39,06,50,301,36,07,55,329,42,08,60,357,35*76
$GPGSV,4,3,14,09,65,025,40,10,70,053,38,11,75,081,37,12,20,109,39*75
$GPGSV,4,4,14,13,25,137,41,14,30,165,36,,,,,,,,*78
$GPRMC,100214.00,A,3958.9195,N,11620.6600,E,2.1,203.54,010526,,,A*6C
$GPGGA,100214.00,3958.9195,N,11620.6600,E,1,12,0.9,51.6,M,0.0,M,,*65
$GPGSA,A,3,01,02,03,04,05,06,07,08,09,10,11,12,1.6,0.9,1.3*3D
$GPGSV,4,1,14,01,25,162,38,02,30,190,40,03,35,218,37,04,40,246,41*73
$GPGSV,4,2,14,05,45,274,39,06,50,302,36,07,55,330,42,08,60,358,35*75
$GPGSV,4,3,14,09,65,026,40,10,70,054,38,11,75,082,37,12,20,110,39*7A
$GPGSV,4,4,14,13,25,138,41,14,30,166,36,,,,,,,,*74
$GPRMC,100215.00,A,3958.9191,N,11620.6597,E,2.1,203.51,010526,,,A*61
$GPGGA,100215.00,3958.9191,N,11620.6597,E,1,12,0.9,51.6,M,0.0,M,,*6D
$GPGSA,A,3,01,02,03,04,05,06,07,08,09,10,11,12,1.6,0.9,1.3*3D
$GPGSV,4,1,14,01,25,163,38,02,30,191,40,03,35,219,37,04,40,247,41*73
$GPGSV,4,2,14,05,45,275,39,06,50,303,36,07,55,331,42,08,60,359,35*75
$GPGSV,4,3,14,09,65,027,40,10,70,055,38,11,75,083,37,12,20,111,39*7A
$GPGSV,4,4,14,13,25,139,41,14,30,167,36,,,,,,,,*74
$GPRMC,100216.00,A,3958.9187,N,11620.6595,E,2.1,203.49,010526,,,A*6E
$GPGGA,100216.00,3958.9187,N,11620.6595,E,1,12,0.8,51.6,M,0.0,M,,*6A
$GPGSA,A,3,01,02,03,04,05,06,07,08,09,10,11,12,1.5,0.8,1.2*3E
$GPGSV,4,1,14,01,25,164,38,02,30,192,40,03,35,220,37,04,40,248,41*72
$GPGSV,4,2,14,05,45,276,39,06,50,304,36,07,55,332,42,08,60,000,35*7D
$GPGSV,4,3,14,09,65,028,40,10,70,056,38,11,75,084,37,12,20,112,39*72
$GPGSV,4,4,14,13,25,140,41,14,30,168,36,,,,,,,,*75
$GPRMC,100217.00,A,3958.9182,N,11620.6593,E,2.1,203.47,010526,,,A*62
$GPGGA,100217.00,3958.9182,N,11620.6593,E,1,12,0.8,51.6,M,0.0,M,,*68
$GPGSA,A,3,01,02,03,04,05,06,07,08,09,10,11,12,1.5,0.8,1.2*3E
$GPGSV,4,1,14,01,25,165,38,02,30,193,40,03,35,221,37,04,40,249,41*72
$GPGSV,4,2,14,05,45,277,39,06,50,305,36,07,55,333,42,08,60,001,35*7D
$GPGSV,4,3,14,09,65,029,40,10,70,057,38,11,75,085,37,12,20,113,39*72
$GPGSV,4,4,14,13,25,141,41,14,30,169,36,,,,,,,,*75
$GPRMC,100218.00,A,3958.9178,N,11620.6590,E,2.1,203.45,010526,,,A*69
$GPGGA,100218.00,3958.9178,N,11620.6590,E,1,12,0.8,51.6,M,0.0,M,,*61
$GPGSA,A,3,01,02,03,04,05,06,07,08,09,10,11,12,1.5,0.8,1.2*3E
$GPGSV,4,1,14,01,25,166,38,02,30,194,40,03,35,222,37,04,40,250,41*7D
$GPGSV,4,2,14,05,45,278,39,06,50,306,36,07,55,334,42,08,60,002,35*75
$GPGSV,4,3,14,09,65,030,40,10,70,058,38,11,75,086,37,12,20,114,39*71
$GPGSV,4,4,14,13,25,142,41,14,30,170,36,,,,,,,,*7E
$GPRMC,100219.00,A,3958.9174,N,11620.6588,E,2.1,203.42,010526,,,A*6A
$GPGGA,100219.00,3958.9174,N,11620.6588,E,1,12,0.8,51.6,M,0.0,M,,*65
$GPGSA,A,3,01,02,03,04,05,06,07,08,09,10,11,12,1.5,0.8,1.2*3E
$GPGSV,4,1,14,01,25,167,38,02,30,195,40,03,35,223,37,04,40,251,41*7D
$GPGSV,4,2,14,05,45,279,39,06,50,307,36,07,55,335,42,08,60,003,35*75
$GPGSV,4,3,14,09,65,031,40,10,70,059,38,11,75,087,37,12,20,115,39*71
$GPGSV,4,4,14,13,25,143,41,14,30,171,36,,,,,,,,*7E
$GPRMC,100220.00,A,3958.9170,N,11620.6586,E,2.1,203.40,010526,,,A*68
$GPGGA,100220.00,3958.9170,N,11620.6586,E,1,12,0.8,51.6,M,0.0,M,,*65
$GPGSA,A,3,01,02,03,04,05,06,07,08,09,10,11,12,1.5,0.8,1.2*3E
$GPGSV,4,1,14,01,25,168,38,02,30,196,40,03,35,224,37,04,40,252,41*75
